,id,name,lat,lng
0,53a29eff498e6bc264a2f746,zeny's fast food,14.737028,121.051134
1,50a4b924e4b0cbb1fac2abd1,sm city fairview food court,14.734661719587873,121.05947075978406
2,4d294f6c888af04da15eceaf,bodhi vegetarian health food house,14.733963245432955,121.0600233078003
3,58dfc03b076be155f2ac96e4,rooftop food park,14.730262,121.060988
4,5800d3e738fa52c570ae707c,bodega food hub,14.728601298932816,121.06042125293848
5,5b231c1dfe63bd002c2ea6a6,limbooz food hub,14.735246,121.06787
6,4d29305d068e8cfaabc7cd4c,sm foodcourt,14.73455692873017,121.05925038164811
7,58a15b0c92789f6a81e4cdb9,food choices,14.736326,121.060265
8,5129cd27e4b089fc3fd3eeae,okuya food express,14.7333,121.060074
9,54521f45498e812da95ba9be,twist  comfort food + difference,14.736543,121.060147
10,50e2d7fce4b0cf8b51f2426a,"ala eh! bulalo, sm fairview food court",14.734495855533101,121.05954663296981
11,513c6441e4b01b2f749ae450,bulalo kween fastfood,14.735285,121.065845
12,50c1e9aae4b024b3005bf37b,mr. kimbob (korean health food),14.73163019097778,121.05932830844509
13,594fbcc128374e6b9ab21f23,chiebog food park,14.720081,121.065116
14,560ca551498eb2ee6d7e8153,master siomai sm food court,14.732599,121.057018
15,57f3ae5b498e17b35d7943f3,bodega food hub,14.730982,121.056157
16,53b6ebc1498ef0074d93dc5a,popsies food trip,14.720266342163086,121.06608581542969
17,51459ec8e4b0b6e410752cd5,lagro pinoy street food,14.720170651292104,121.06600662031755
18,57b036b8498ea963d2933172,pazar food park,14.719058368730098,121.06141407392639
19,4ef863da5c5c68fa0c25f953,mr. kimbob korean healthfood,14.734517208067366,121.05927803227524
20,57eddcf8498e6293246dafe9,bodega foodhub,14.726361,121.057465
21,56655918498e1a6146ad6148,ate v foodhouse,14.726146,121.066912
22,51445feee4b027a9f98bb425,"baliwag lechon manok , sm fairview foodcourt",14.73517,121.05989
23,4e6f480daeb74b05752f29e8,foodmatch,14.745464170142775,121.06548602760883
24,507ac86ae4b027cede55bbc8,kitchen of foodies,14.718022346496582,121.06830596923828
27,4d8dc14a5091a1cd7ce07e01,mcdonald's,14.73453954207215,121.05961970808784
28,4c5674bc6201e21e7c37196d,mcdonald's,14.73534963951429,121.05569834733394
29,55bd8d46498e49490324d152,mcdonald's lagro,14.7353621996208,121.06437345951704
30,5a13adcdbd40091f12086c82,mcdonald's,14.727813830555526,121.05748500258983
31,533fd811498ef887d6fb3d9f,mcdonald's,14.737139839063309,121.05941422006867
32,562d8f10498e7ab0c47a36e6,mcdonald's,14.735411,121.064267
33,535b343911d2edf10bb24071,mcdonald's,14.73466462293216,121.05963620189101
34,512b13a3e4b03a532c2e1a02,mcdonald's sundae kiosk,14.734412,121.056469
35,52ac067811d28f0e46996035,mcdonald's,14.73553478586963,121.05584625863183
36,4cf374fe7e0da1cd0ce29c97,burger king,14.73457513055665,121.06061989765702
37,5311c844498e5540d9e6d86a,burger king,14.736976889536642,121.05930544963952
38,533e9748498e4aa280dd4f0f,big daddy's grilled burger,14.734689514639422,121.05755522670079
39,5a234500947c050390c66928,burger king,14.735417,121.064704
40,4e850cc8b6343fe1220a47f8,burger machine,14.718677995528623,121.06408097581993
41,55f54fa2498e412be23cce57,back alley burger,14.733683380145832,121.06765794786254
42,50b3765483029e1f11aee929,minute burger - lagro,14.733330305982808,121.06780171394347
43,4c788984df08a1cd48ffd75d,big better burgers,14.73451967643722,121.059231934433
44,5609de16498e3014df0fb3ff,1802 burger café,14.731512689057558,121.06101331565831
45,50f20e27e4b0e0c9d7fac683,minute burger,14.729207266166844,121.06811135925254
46,54eff3a5498e59d2122f4a4b,zark's burger sm fairview,14.734447379585829,121.05674467182003
47,564f0e50498e021034a7d5c0,bab alleys burger,14.72761,121.069455
48,4d81dbbb1ec4224b931fcf92,slammer burgers,14.733889316383367,121.05651244637508
49,58959c316cda1c3ed2047ebe,"burger matsing, lagro",14.726152,121.066016
50,53116e0d498e1cf9c89dd4a6,army navy burger + burrito,14.73634493828311,121.0601400258299
51,4f8eb5ece4b0fe4dc1442d86,burger machine,14.734670397175334,121.05748093122189
52,50def844e4b09f5e83b56f0b,burger machine,14.732024130608568,121.05749212753292
53,4e25c58eae6035bd16f8fa48,burger machine novastop,14.734448,121.056539
54,4f7ce738e4b09c3e2e91a231,brothers burger,14.741612,121.058397
55,4e5a9628b993732579f92ab5,burger machine,14.746578966814079,121.07023845157879
56,55bcc744498edda06d06ed84,burger house,14.740991174106638,121.05632210739617
57,549436f3498edcbb09abaa9b,burger blvd,14.720273,121.066351
58,5756c91c498eb346a806e161,top that burger,14.720169,121.065497
59,59241847780eee7403d3ff8e,moresurebite burger house,14.72002,121.06634
60,52b6d57d498e25b10caa105d,burger machine lagro,14.720180667273972,121.06494863922231
61,5076525ac84caa2e895122da,galaxy burger - lagro,14.719757981709797,121.06605291366577
62,502679e9e4b031f7a1e8302d,burger machine,14.732363209986001,121.05243688716216
63,512a5d2ae4b035130cb47580,burger machine,14.73384468993853,121.05236970645863
64,4f9677e9e4b0f123510768a0,chard ocampo's burger spot,14.74903869628906,121.06702423095703
65,506d925be4b0f909000b0ee4,burger machine dela costa 2,14.74777936892314,121.07492911683198
66,544de677498e19baa6ed3b95,domino's pizza,14.735746110886593,121.05928341189889
67,53ccd126498e11624ed40d3a,s&r new york style pizza,14.736676516334212,121.0591771604651
68,53108e19498e66aff38b0fdc,yellow cab pizza co.,14.736454437245444,121.06017001293276
69,4cf50675899c6ea8b2af03c2,yellow cab pizza co.,14.73476624103663,121.05755493606516
70,533940ad11d26ee09b1ece71,pizza hut,14.736496194830096,121.05989734328388
71,4c5a45cf67ac0f474d7d064c,pizza hut,14.734728700317158,121.05939679631591
72,4e11a14ec65b4a49f30e9c1f,pizza hut,14.73531569606255,121.05573774132434
73,5879fbd8d6fe9047488d1697,fatboy's pizza pasta,14.73461,121.056725
74,5362f83f498e1f49cae36d60,lots'a pizza,14.735647,121.067629
75,59f6cd35f62f2b383383ae10,snr new york style pizza,14.73656,121.059392
76,4ea3d797cc2102b34d98b1e9,3m pizza,14.732442,121.060273
77,53abcce7498e02dbfa559690,pizza hut,14.73660202672822,121.06030236864957
78,53f095c4498e358e3e8169bb,lots'a pizza,14.736915507938747,121.05980974148595
79,4f310387e4b013bb069cc1dc,lots a pizza,14.734109728936284,121.05763767948153
80,4ce48eb633d760fc321a632e,lagro greenjoy pizza,14.721731887851485,121.06621518662818
81,4fcb3d36e4b0881ba3b9663f,patricia's pizza,14.735401,121.055521
82,53e06d07498efd2d6274a174,niña bonita pizza cafe & bar,14.732950137672677,121.05418357229443
83,50582483e4b0b36648193a63,red box pizza,14.7408146,121.0535693
84,56bc04ff498e053e768d91ac,mr pizza,14.737677422104618,121.05046063913179
85,4d919c8698e05941bd0cc541,shakey's,14.735353502179516,121.0632016216543
86,4d68c83c1a88b1f7c8a4225d,shakey's,14.734554479181968,121.05953241486644
87,4cf219a3899c6ea8aab8f4c1,greenwich,14.74893466194627,121.05946266204565
88,5100daa8e4b0cd77a60c05bb,pizzarina,14.73421227028635,121.05983018875123
89,4f9bec12e4b04b5a6816e343,bonchon chicken,14.734625414201235,121.05941584547527
90,5313eefb498e902e9e4b0808,chicken deli,14.73671630032752,121.05974816294867
91,4d9318a152ed224b419814ac,inasal chicken bacolod (icb),14.734585,121.057622
92,527dced611d2004e51b83ccc,manang's chicken,14.73462338990541,121.05757108078855
93,4d01c6e0e5f16ea8d774a728,bacolod chicken inasal,14.734055723148584,121.05675983894992
94,5ab8d8941acf1156f14996e5,peri peri charcoal chicken,14.726336,121.057826
95,53197ebc11d2be2bdc72ca0c,bonchon chicken,14.73614124714402,121.06019442001768
96,54bba3ed498e3e13bd2fcf46,manang's chicken,14.736002723575183,121.05951864266831
97,4f2f33a5e4b083c429181c80,chicken company,14.735170364379883,121.05924987792969
98,5395392c498ecd20b1b046b1,chicken deli fairview terraces,14.73650640879289,121.059406681397
99,4e4217d062843d3dc35aa8e6,the funky chicken,14.730714122126011,121.05117724273276
100,505404dae4b0c9940764339d,classic savory,14.73464525562412,121.0577274340788
101,4c996db878fc236a853f2d97,kfc,14.73450904717843,121.0592159810948
102,5a5edf9fda70804668af0384,chickenzilla,14.734632,121.059282
103,5a5c3d7e270ee776f2f71817,chickenzilla,14.734232,121.05978
104,5a6dba155f68b93a071f1403,food plaza 168,14.739557,121.02513
105,56630cb7498e4003e063db08,101 food central,14.721913089214356,121.00920956533287
106,56c5bc8acd108a8b914bc3ea,king's food park,14.734574880830584,121.02799743470177
107,58491ab0d43907631c5129d9,shiro food park,14.738836130999898,121.03040595323719
108,55fd7c7e498ee96807cba701,food garage,14.71909,121.006405
109,4f7bd34be4b0f9b41508f2e5,chef yu food house,14.718894814307784,121.00578767477107
110,59a92f39fd9d733630b407a0,foodever21,14.735474,121.006548
111,51667a59e4b0639dfe69feb0,dadadz foodhauz deparo caloocan city,14.74133,121.022922
112,5af45853c8b2fb002ce454bd,mcdonald's,14.739693,121.026245
113,5344e4a6498e9708b95d6d05,burger machine,14.730577689530877,121.01843297794699
114,52e4ac8c11d2da6d572486d2,big kahuna burger,14.733137130737305,121.01765441894531
115,4f5252c4e4b07de37b69428b,burger machine,14.742158889770508,121.0235595703125
116,529845f411d24f84fa2f681f,brothers burger-greenfield,14.71971,121.02105
117,54428bb6498ed784c3316ad3,minute burger,14.739227386027444,121.02538802759412
118,535ce5cb498edf48bd7abf14,big plato burger,14.740502501389274,121.024990452032
119,54a37dc8498edea25cbaa8f9,burger machine,14.725577,121.02544
120,59047ac25d891b426ab8443b,jailbreaker's grilled burgers,14.733981,121.01975
121,5294148c11d2268c38375bfd,aaliyah's pizza deparo,14.7472129,121.0210295
122,4f928f47e4b061a425367ac0,chester's food center & catering service,14.708638680105095,120.9584761557664
123,4f38e2c9e4b0f4cfe00f16ed,tlc food center & catering,14.716876278401646,120.9780729589281
124,50d52d06e4b0ca3031a9c0c9,tita marie's sizzlers and fastfood,14.734805757915943,120.96138394288761
125,4f2730c1e4b012e031daf58a,foodie,14.712276,120.959687
127,4cc56114be40a35d3ad9834c,mcdonald's,14.726472612823324,120.96078277502359
128,545703ea498efbb0dc6bcf52,mcdonald's,14.72660031335299,120.96081807839674
129,53e23343498eea3dceeaa359,mcdonald's,14.729948753047147,120.9727398939786
130,52f8a595498e17e69f591de7,triple d burger,14.722920417785645,120.95967102050781
131,59f1e2162f97ec3678cb9927,burger matsing malanday valenzuela,14.716994,120.955984
132,50a66f75e4b03d1eadb60bd5,minute burger malanday valenzuela,14.716825485229492,120.95933532714844
133,52ff880f498e8439af3194c3,burger machine - malanday,14.717368125915527,120.95740509033203
134,4d61ebc09f67f04d78f789fb,burger machine,14.717387,120.957241
135,5831baadfc5a5f4d94a40aa5,tomato house & grilled burger,14.72544,120.95866
136,4f2489ede4b0dc27b99a4e8a,burger machine,14.714060090497707,120.9579102777429
137,4f2712f4e4b012e031bae992,angel's burger,14.712425106495811,120.95983761388521
138,58fc6a11c21cb16c17d5a6e0,the real grill burger,14.72104,120.97521
139,53f0130e498e381a6ca16329,burger machine,14.707283533188999,120.95348961523891
140,4f6bb7fde4b01489b802a459,minute burger,14.735865954274047,120.95634709605467
141,5ac0ac31b040560f6da634e1,biggie belly sisig and burger house,14.732934,120.976524
142,4f03225db8f787cad42f6af5,burger machine,14.738054712471865,120.9610421834606
143,4ba58468f964a520940e39e3,lots' a pizza,14.712277,120.967446
144,5a462efcee7120185024d727,fat boy's pizza puregold meycauayan,14.726091,120.960526
145,5014fd05e4b0260c42573eb8,lotsa pizza,14.716650937507293,120.97715985623977
146,5300a4ff498e8439b949374b,pizza hut 168 shopping mall,14.707391236517816,120.97532802829099
147,5bb695f081635b002ca5f08d,sarteene food services,14.697089,121.06562
148,56b497db498e81e7302d3bac,eat street food station,14.688239669216527,121.06096293372515
149,501c7e65e4b010b81caa4bea,nrt food station,14.686833354871956,121.06360515774743
150,528ee0ad11d24e5fc2f9c63c,kcc food haus,14.686943839058605,121.06487586769366
151,572eb7cd498efaf00397fc2f,east street food station,14.686117,121.06468
152,4ce3ae1cbebd37048954a1a0,sizz & burp where good food happens,14.697733,121.06589
153,4fb08a1fe4b08eac4edea2d2,silver pot food haus,14.696412379583155,121.06784267122792
154,57e36582cd10649ae6ba0796,matsuya bento japanese food,14.698516,121.067223
155,543a7478498e707a13e784cd,mr kimbob korean healthy food,14.692498030910476,121.05277838849207
156,514c9fdde4b04419bca077d2,food republic,14.69101,121.071841
157,59aa93d4625a664f68ce6ebe,funland food park,14.701934,121.06834
158,5603d097498e35c785e912ee,giant panda chinese fastfood express,14.697658960038446,121.06594504495342
159,57e5014d498e3ae1fcdb245d,"food stuff, sss housing",14.705501,121.061904
160,560365f6498e2c9abc523686,great panda chinese fastfood express,14.69790360536594,121.06596183823767
161,4f61db1ee4b0deb11b9d78c2,pinoy food sa hapag kainan,14.707136625183743,121.05979294734256
162,58d8bfaedad26346b9abcc97,garahe food park,14.708025,121.062744
163,4f9d2f20e4b0b38d30210e3a,oneway korean food,14.708165082256555,121.06323009982209
164,4f522f15e4b0195da37c9cb3,san mig food ave.,14.708653456844486,121.06243519706858
165,53c90c10498e3cb77a865791,mingh's hongkong style street foods,14.698210947698863,121.06586838404263
166,4e016bc91f6ef39c294341e8,carbe's foodhaus,14.697276290890844,121.06545244090506
167,5837fff8ba883710b2ed464b,north hive bazaar,14.683343441015404,121.07742992041027
168,50a4b1ece4b0a3e2f7a33d92,foodsmart,14.699098036285893,121.06578830752065
169,5a47ac560802d431b1c445a8,the warehouse foodhub & activity center,14.702063,121.068555
170,4ffe3d74e4b03c980f98cd6c,foodcourt,14.706039529617124,121.06902480125427
173,4c8470a2d4e23704ca887a88,mcdonald's,14.706630214323967,121.06999780278967
174,4f2a3505bb3d722395c5e3c4,mcdonald's,14.699731436614393,121.06753354325187
175,5a520a97f193c011e0871d98,mcdonald's,14.70629,121.05956
176,52903e4f498e70f852261fcd,mcdonald's,14.684528333096985,121.07729063201806
177,567b75b6498ea57015e94fb9,mcdonald's,14.706732154966874,121.06989156329035
178,540a657d498e9f07ab857d82,mcdonald's,14.69360419153423,121.05058380567922
179,543bdb45498ea549c8c5408a,mcdonald's,14.691752353664878,121.0752257756594
180,52c1450511d2680f51bd3a36,mcdonald's,14.68451683751155,121.07759342267745
181,543a6bd4498e707a13e68129,mcdonald's,14.706180563742924,121.07198487818154
182,52d7df57498ed7b4d9174296,barney's burger,14.697720331381419,121.06584997267831
183,54981b70498e44406af03189,burger king,14.706671217210696,121.07019926949664
184,555f6597498e9927bc42bbba,burger king,14.706736695219131,121.07021529209078
185,55363662498e48a39db8c5ad,burger point,14.68635,121.06579
186,4f4c9dd6e4b0ed369267e00c,burger machine,14.699395900080123,121.06066537658143
187,5a8c3185061b510741fc966a,burger matsing republic ave,14.693363,121.067539
188,4d4c787e190ba093032121a5,angels burger,14.686392850085566,121.06304576918274
189,50680e13e4b0bb47b27916e2,burger machine,14.686011,121.063706
190,5162e0b0e4b05330260faf9d,burger machine,14.707792,121.063508
191,55226364498efd9b94fca587,cozy burger place,14.686050332204948,121.06712616689234
192,55c592b0498e40178b9b17b4,getta pound burger,14.701203,121.067777
193,55cb1e8f498e773913e7fb05,getta pound burger,14.701338702412038,121.06799380831569
194,508e9f20e4b00ac3c88e18b0,burger machine,14.692498030910476,121.0501695177007
195,4e610ef71838ad3d0e2ddbb1,burger machine katipunan street,14.703387,121.071721
196,59f23a7995a7222469726853,minute burger,14.705471,121.069416
197,57b2bcb9498ed65fd39fe639,bypass burger™,14.705842018127441,121.06997680664062
198,5ac5e35b9de23b16a3b5a95b,angel's burger ncba,14.7066345,121.06891
199,56d81833498ecdce655db60b,dr burger,14.700254,121.047027
200,519d6f42498ec2191320e384,army navy burger + burrito,14.684465,121.046522
201,5191f4bd498ea80299cb30b4,angles burger mapayapa,14.683105,121.077446
203,4fcf5114e4b023d0d918d594,jet burgers and sausages,14.687544194729147,121.0629334113808
204,50382068e4b0b35a24d542c6,chyros burgers & siomai house,14.693721440045314,121.07667547523762
205,51f140e5498eb1f27aabe8cc,yellow cab pizza,14.699660733013692,121.06790370997636
206,4d2b13ca3c795481bd96e59b,pizza hut,14.700060726099657,121.06760118074357
207,58ca6d72f840852ab4dc5098,papa john's pizza,14.698548,121.0671
208,59a25feb82a75011a4023ed3,domino's pizza caltex regalado,14.706802,121.069604
209,4d107e079302a35d574e7b6e,green avenue pizza,14.69955357696551,121.06281280517578
210,4f6c68ade4b0e14a3ded61b4,la rocca's pizza,14.686815545905214,121.07116017989034
211,4e968c489a528e6d36d7e3f7,dexter's pizza,14.700298201602292,121.06881666245928
212,54bba36d498ee8b4452efa4d,pizza hut don antonio,14.682653841566259,121.06719333935523
213,57936e60498edf90e6be0531,papat's pizza & inasal,14.701914,121.068301
214,52762854498ed1b62397470c,lots'a pizza,14.704930472773173,121.06937642396288
215,52d2456f498e2ed4eb2a981e,pizza pedrico's,14.679324665385826,121.07495150620299
216,4cd617147da9a35daad5edb9,shakey's,14.70573787792952,121.07309572952809
217,5400544f498e63a9c452504b,shakey's pizzastop,14.68405811385705,121.07761581155172
218,4e5257fed4c075ade75950fb,kc korean chicken fairview,14.698670469421513,121.06588346955779
219,5bcea9ceefa82a002c1c6d7a,rusty wok flavored chicken wings,14.696993,121.06601
220,5452df6e498edcd92ef9ddb0,takara empanada and japanese fried chicken,14.699839,121.065181
221,531d6d4d498e3035ab09d46e,kulpy chicken,14.699748245454165,121.06801619897921
222,4f6b1cf6e4b003b5e24bf794,chicken in run,14.700700703612583,121.06679030401475
223,53fc0dfb498e08c864cc0c91,homies pinoy fried chicken,14.699181,121.069548
224,4eec2beda69d8afe697c507c,chicken anyhow,14.70180602525191,121.06821771476305
225,4ddca5cb45ddaa53edae01c6,ma chicken mami house,14.68475116237727,121.07413988883634
226,4ec96702cc21b428e55378f2,savory chicken,14.698172398147433,121.04577461828843
227,548af503498e031a7da0d175,the chicken mogul,14.70957547296042,121.06189779504712
228,57d141b1cd10cb09ce8b90e3,yarda food hub,14.701297703187034,121.02269456754604
229,4d7ddebbf635236a34585d16,big brown's soul food & catering,14.688651,121.0237605
230,582197a78edd3a06f3844eed,qc 567 food park garden,14.69134,121.028283
231,5780ebd1498e3c232ae0ef0a,kings ground food park,14.699631894606409,121.01760426800844
232,4e43f37fb0fb71d2197b8ca5,food cart,14.682570457458496,121.02562713623047
233,5718b8d5498ef02b104913a8,kings ground food park,14.69793004660233,121.02680472986788
234,5844110255d622400f27871f,shakes 'n go - tgp brothers food park,14.694604,121.03076
235,5803674938fab2145c21708b,t gp brothers food park,14.694629,121.031024
236,5798ef9d498e79e713a20ba6,brothers food park,14.694593,121.03109
237,51179b6fe4b0f9aea9c067f7,home made food,14.688641108194231,121.03205142310638
238,50c18c60e4b0158f3daaf050,young master's food house,14.678895572750143,121.00741182474948
239,565d070f498e8b5bcce9970d,feu - east asia college foodcourt,14.692123,121.02369
240,561cb0c1498e42094026da21,zrc foodhaus,14.698905544935627,121.02286816033744
241,4e89a76ed3e34cc1536dc5ba,sabroso foodsilog,14.690029715582815,121.03144669314752
242,58c5444e126ae8310d048be4,hazelberry café @the vibe foodpark,14.686431,121.031899
243,58809021bbec6666d4765e1d,wing vibe foodhub,14.686558,121.032211
244,579cb674498e20f50cd619dc,mcdo st charbel qc,14.692435,121.018914
245,5a8c32d07dc9e1114e046bbf,mcdonald's,14.679912,121.020154
246,58a292d4a36ecd4f5212f31f,mcdonald's qh talipapa,14.686415158267101,121.02439486790813
247,549e7fda498ed7b6f84d3638,mcdonald's,14.68006617409871,121.03195128830829
248,514c8b00e4b04176dc73bd17,sm cubao - mcdonald's kiosk,14.690564513353534,121.01010002507192
249,5690ebd6498edcdfccca22d7,mcdonalds st. francis,14.682807896566077,121.01047524828148
250,5370a681498eddbbc8c2241b,mcdonald's,14.690434300033644,121.03206262178074
251,50965245e4b0c4415712e140,mcdonald's,14.703597789594538,121.02792464084771
252,56b61306498e39e70798391a,bratz burger,14.698801611771009,121.02362823249324
253,565ff820498ee2181aee7798,bypass burger™,14.701769274498643,121.02267910728808
254,50914157e4b07c64df7d8363,twins burger,14.688584628165565,121.02290735867514
255,4fdeb547e4b0e598b6d0e487,minute burger,14.68720830729215,121.02425502711895
256,503fbc22e4b09c7b4eed4466,twins burger,14.686258049920385,121.0243520885318
257,4eafaa5193ad8dcab6f03932,burger machine,14.690105655184215,121.02617197557078
258,50ba0452e4b0e31c41439192,angel's burger,14.68010008353366,121.01642826072099
259,5821936c556cad0787248508,back alley burger,14.691574,121.028402
260,4f311f04e4b02344c2648408,angels burger - meycauayan,14.699923730960181,121.0231985459285
261,509c0ab1498e0d95ea55e439,angel's burger,14.701840429546563,121.02268336800252
262,53fcd58c498e524aa260a122,angel's burger,14.693166732788086,121.03042602539062
263,4ff9841ee4b0f33163af1769,captains burger,14.703919183200725,121.02223538541098
264,50f63395e4b0b52025ad6b58,"angel's burger (pluto st. brgy. bahay toro, qc)",14.679899671193642,121.0297556729165
265,4fa51d4ce4b00cad88f79da7,burger machine,14.705873623861537,121.02132821557379
266,5120f48ae4b0938085c5a7fb,burger machine,14.67544468579633,121.0236241260358
267,4d7b489bea35236a80c44223,angel's burger general proj. 8,14.67549462719874,121.02534323041311
268,58b587cc3f5a5c2178fa9e7a,kb kako's burger,14.673015,121.02081
269,57a367dd498e01722ce67985,angel's burger,14.6797,121.03227
270,593273030336931d71d4f64a,angel's burger mindanao ave,14.679761,121.032326
271,57767fd7498e7b1d75a6df10,grilled punit burgers,14.691287,121.027279
272,561f99b3498e3a7da6f675bb,gourmand burgers,14.704610824584961,121.02194213867188
273,5742b199498eee3f19d2e6d3,cheddar burst burgers,14.680619,121.03263
274,5288960411d2ab3eaf3920a7,lots's a pizza,14.696543688408488,121.00065745786604
275,507bc5b0498ec6be8ee3ffc0,lots'a pizza,14.684617713648281,121.0211098218176
276,5690f150498eb2b8ea60df99,yellow cab pizza co.,14.681103870242241,121.03188693440102
277,50052923e4b0f0192adfa7a4,lots'a pizza,14.680975197097842,121.01985545003288
278,5211e16511d272e34e7d7fcd,"mrs g. pizza, pasta, pastries",14.701428448620039,121.0225993713932
279,5030f554e4b01042a426283a,fat boys pizza shorthorn,14.682713821903068,121.03196183367412
280,5816b6a538fa0d16365e8f11,domino's pizza,14.702936,121.02961
281,5133386ae4b0835c6b6027a4,rsb fried chicken,14.698967294406824,121.02350093194842
282,536103fc498e3f9dfcd357e1,bonchon chicken,14.690391540527344,121.0320816040039
283,512232d4e4b0781de90a322f,akong food house,14.688381720563148,120.95719277858734
284,5010ca7ee4b0dd18eb2e66a2,pampangenos food house olfu,14.678836912561874,120.98028006220294
285,56923f9d38fafe86487f2291,rizzi italian food lab,14.692317059101866,120.96992201402121
286,564a6773498e2004c2ece6d4,reniabe food counter,14.689680036008733,120.97357460133225
287,584aefea9b7eac69837dbb7c,valenzuela food fiesta and bazaar,14.693115,120.9702
288,58836427084be50765954147,jaedels food park,14.694058,120.96864
289,5601dec4498e93b8e929e3f0,keniabe food counter,14.691832542419434,120.97569274902344
290,51f8e385498e73449f22e4da,pares boy food express,14.689590668079923,120.97668929757067
291,4f585fdce4b027eb91f3d3e8,jay-van food express,14.6939373,120.9655293
292,4f812a8ce4b088077f84d5ae,food court,14.68572455249397,120.97628596011648
293,4f61587ce4b02c4ed776c873,seven food house,14.6777129028741,120.9784660204132
294,5a0e6a5e50a6f01f4a072b26,laryo food house,14.697352,120.96538
295,4e71f7d6fa76b23d31ab7dce,jepoy food express mabolo branch,14.685224533081055,120.96153259277344
296,5bae2f42ab42d9002cf3aaf7,food ibig sa pasko sa puregold,14.697831,120.96325
297,563b227ecd1097f1a0a37378,pure gold - food court,14.697969,120.962911
298,4fd201c2e4b0b5fdabdbfab4,jutajak (thai food),14.691261291503906,120.982666015625
299,51cbcc66498e334077c442ba,lil wok food hub,14.683960780365174,120.95964152003411
300,4f5ec868e4b01e3f06307f88,fatima garden food court,14.681096250899301,120.97986985450467
301,5284f4a511d26a614e9a575e,fasika food inc.,14.702039016789204,120.97101151943207
302,55c07455498e75a9634846c6,believer's food plaza,14.68105653481838,120.98017362921006
303,50374f4ae4b027db4f01f766,golden crown food center,14.67797,120.97754
304,4f1e2d0ae4b01dbd1e39194a,126th food haus,14.67808216278899,120.97942299387195
305,53ecaa7e498ea213a7017f33,alarcon catering services and food haus,14.678829,120.980592
306,54195907498eabfd76fe6811,food channel,14.67814337766386,120.97977161407469
307,506fb812e4b08d6e29af24f9,mylene's food to go,14.678028,120.980131
308,4d92c87314228cfae929547b,126 food house,14.677837205948473,120.97991108894348
309,584aef4bc7ec6b17dd27e8d7,valenzuela food park and bazaar,14.677420628553657,120.98026885873439
310,4ec4e0876da117f8e5dcc663,puguan food express,14.678506675945632,120.98214542528723
311,503b3dd7e4b022a04bf3f160,lucky chinatown fastfood,14.697462634955183,120.98028566393681
312,5a3f840f58aa7f179b594099,mr. hakobe foodhub,14.691858,120.972598
314,4d118fbb85db548107a4c121,mcdonald's,14.692325125095572,120.97070845530729
315,4c32ec36213c2d7f6124365d,mcdonald's,14.68570879255041,120.97638215991581
316,52b6eb3c11d2d41140d6a3d8,mcdonald's south,14.684357517534014,120.97214046972151
317,527a7e7f11d2527cf749668e,mcdonald's,14.701940429944571,120.97078084945679
318,5541ffed498e933153d64731,mcdonald's,14.676145607433861,120.97858832673728
319,567f7502498ec4c64d62444e,that's b.s. burger & sisig,14.69223486025324,120.96979316307623
320,4f73fa83e4b0250b70e4a14a,andrei's footlong & burger stand,14.690425790842728,120.96881837323785
321,4eba6084e300cf4cac39cf2c,burger machine,14.694432160654472,120.96954106300595
322,51a21332498e75bcb14855bc,angels burger,14.694473,120.969697
323,58cd483bf697e039ad0f1ea7,chicago's best burger,14.694879,120.97045
324,595e642de57ca66538597948,captain's burger,14.689473,120.976674
325,501f72a2e4b0825081224118,burger machine cayetano,14.6862211227417,120.97603607177734
326,57e65737498e2af8a731e6ff,crave of champs grilled burger,14.688807,120.964175
327,4fdcdb8ee4b0b4dd2911e10e,burger machine,14.686095216997549,120.97607308703081
328,59fdb286e679bc36f4ff7410,the real grill burger arca strip,14.698378,120.962297
329,55136591498ef675aa80ae3f,coal spot burger & steak,14.67948123810777,120.97958273783337
330,4f765d62e4b0c8b49715b22a,captain's burger,14.696829870914607,120.9643532876314
331,5501cb6c498ed2988fe5ec75,angel's burger fatima,14.680890620269734,120.97480144266393
332,54fd77f8498e3692ae955ae4,the coal spot burger and  steak,14.677556757696188,120.97937817967502
333,4d5c10389ac9a093f7836c94,angel's burger maysan rd.,14.701953,120.971092
334,5141c4fce4b03ec22fed3a34,burger machine,14.679606349526507,120.9795070204466
335,4f4648d7e4b07a6329cb338b,angels burger fatima,14.677876175774088,120.97758559822539
336,5729899b498eedef8c128f2a,barney's burger,14.678641797479687,120.97935099237652
337,55efe5cc498e53e63e8a04eb,barneys burger,14.678633669464709,120.97938483140807
338,512f60efe4b0f810e01c098c,angel's burger,14.678806154093698,120.97968627694468
339,56eba237498e9efb79b6ce8a,barneys burger,14.678636,120.979485
340,52e491f011d2da6d5691575a,burger matsing,14.678682678687153,120.9795630381307
341,50eda113e4b03d277d719803,captain burger tamaraw hills marulas valenzuela,14.678788033640126,120.97975349806318
342,51da8b57498ebf3e26db4eb1,burger co.,14.678539,120.979795
343,4ec865d461af9e1430e8111d,angel's burger,14.678503178079119,120.98085143772657
344,550ae723498ecfa65ca5a3d8,long gun burger,14.677523,120.980844
345,5128eb4ee4b0c51f93efc92f,minute burger,14.696434055317198,120.95422360201118
346,547ec874498eab78dbb4ea56,chips (burger • sausage • fries),14.679293110167881,120.9850974577904
347,528f84f9498eb439746ba34f,big better burgers,14.701649857933043,120.97079157829283
348,534959b6498e3a4e7b14aac2,triple treat burgers panghulo malabon city,14.686226,120.956472
349,4e8fe63a29c2117fa39c4b78,pizza hut,14.692488406937464,120.97068982584922
350,4c19f35b834e2d7f8c1c2b80,pizza hut,14.68590362111954,120.97629635866944
351,5156c980e4b0e5f96e1441de,fatboy's pizza pasta,14.684975697752696,120.97684054877041
352,5644505f498e6cc03cc7697d,yellow cab pizza co.,14.684595249495777,120.97691709015864
353,5651863f498e75847cfd6f72,fat boy's pizza,14.689746856689453,120.97410583496094
354,57401892498ec5281177f748,calda pizza,14.694766,120.964012
355,5419362f498e9b142b50cb87,pizza hut sm valenzuela,14.685618279438986,120.97603947545684
356,57401910498e91e76e8e0f18,calda pizza,14.694968,120.964465
357,515a6bd5e4b0f84f53b57f3d,fatboy's pizza pasta,14.684950518137589,120.97769763534178
358,51aecfe9498e9deca6882122,bonito's pizza,14.682307972217492,120.9761683197732
359,59dd8062ca18ea4b9a6285d6,domino’s pizza,14.677590048757105,120.98032260034991
360,528e5b6a498e6dab61d831ed,pizza hut,14.701473439023133,120.97108125686647
361,528e5ee2498e6dab61d97c1d,greenwich pizza,14.70173287854722,120.97069501876831
362,511789fce4b0eb6a9e40f501,louie's master pizza,14.678267579188388,120.97843147589661
363,507969b4e4b05ac93cf77956,"pizza hut, sm marilou",14.681655883789062,120.982177734375
364,518c7d93498e8f5bf4e7217d,shakey's,14.68447083371027,120.97705228376869
365,52061ca811d2e0379de13599,pizzarina,14.689343454779644,120.97740633862402
366,4cdfe0fb78ddf04ded5ba398,shakey's,14.678362676303271,120.98007196559064
367,57d29bea498ec7f2c3c0fc4b,bonchon chicken,14.68589968517474,120.97629258545801
368,4ecc8ddb6da1d506e8ca843d,kkl's chicken house,14.68987101053185,120.97413606537391
369,4efed83761af974bcd19055b,"d'plaza home of crispy pata/ulo,chicken, itk",14.68738409073687,120.97552969877724
370,57d25ff6498e4af694dd8f39,bonchon chicken,14.685506,120.976494
371,528f8494498eb439746b8280,bacolod chicken inasal,14.701561648495906,120.97100347280502
372,528e5cf5498e6dab61d8ca51,bonchon chicken,14.701748444908857,120.97051262855528
373,56623fdc498e347f6e2038af,chef keith's (kinalas mami & grilled chicken),14.681656,120.980279
374,5214a31611d28245d6248e32,fried chicken stall,14.677509004081184,120.97667809377059
375,57a078dbcd1034ce806687f6,jordan's chicken java + steakburgers,14.678915,120.98063
376,523509c9498eedc5b3e19332,chicken deli,14.677737380588791,120.98032487606676
377,510e0e2ce4b0769192eb8d67,"mannang's chicken, paranaque",14.677913,120.980556
378,520c2c97498ebf872ec4d965,hungry juan roast chicken,14.677525,120.980196
379,4e95891f9a526ce9d8cc741b,classic savory,14.685903032739281,120.97632036319001
380,4e040b088877fc58724d29aa,the landmark food center,14.652024532432824,121.0342295457071
381,4c39273a3849c9287be3c0b1,food choices,14.653050007294517,121.03365765868038
382,56640fec498eb0210b759d4b,one fifty food place,14.640816781052582,121.06112527543415
383,57e0e591498e0ccbce7e2bd5,whitewall coffee & food co.,14.642161740525996,121.04017296712335
384,54ce5cc2498e6c4d9533d7ae,streat: maginhawa food park,14.6466222794133,121.05858936095983
385,50a14f93e4b0872dbede02a4,food lounge,14.657014,121.053147
386,56506ba638fa31e5c7eabeda,food centrale,14.645644578238889,121.05374000003522
387,54e704ef498e41036f209539,food tiangge sa qc circle,14.65773621812668,121.05635009844137
388,4dbb097a1e72b351ca8eed1c,street food fridays,14.658204996408548,121.05635404586792
389,4f3551f2e4b0ba1c481ce654,ariva street food,14.6587,121.056052
390,5881fe93951e7d6cfb31d9d0,food hive,14.6642649141534,121.04390055368924
391,4eafca2f02d521a7a7edab8d,food court mines,14.659393310546875,121.046142578125
392,5997c24bccad6b5a97fef5db,puesto (modern mexican comfort food),14.645772,121.060616
393,5872122a7d0f6d6264cbeaf7,sagul beer • food • art,14.642950526870264,121.05950327577582
394,53019c0c498e5ae4f0db9367,snackarao specialty food,14.646930747896874,121.05138438516653
395,58ad7898abf63259e3d93ccb,the sanctum food park,14.663385,121.053692
396,5b2f22518c812a002c22fbd8,ok street food court,14.652253,121.03573
397,4ec1fe8277c885a64f6a9b67,angelo's food camp,14.663438878961204,121.05423344812415
398,5347ed38498ec9dbf957b5f0,z's food collective,14.642887054335727,121.0586247717669
399,4cb68cd115a79521cb283905,pipino vegetarian food by pino,14.642842976732243,121.05914501148989
400,58655c62eef5da0d3ad969f1,central food court,14.662115,121.058551
401,4f068701991146d09d1aa8a4,al fahkr's persian food,14.646710343832622,121.05847180071414
402,588806d8a598b30415e37e8a,boxpop food express,14.644629,121.049474
403,552277d3498eb547450cd6d3,saucy food mnl,14.646763671769975,121.05883007919968
404,55fd9a79498eb741a39e1e3d,egg it asian street food,14.646647450286444,121.05883007919968
405,59e7404b286fda03b537463c,malingap central food hall,14.642749496871502,121.05912149204636
406,5280b03a11d2e944621400aa,tpv mushroom food haus,14.646695515989428,121.05912117968357
407,55e0ff82498e967645ffe459,food zone,14.64649246325078,121.05909318928303
408,5687db7e498edeff7ad5c405,pata bai food house,14.66379314793011,121.04378706335379
409,56c0ae67cd10d44649a5cd86,eats all about guts food hub,14.643759968608723,121.0541107942533
410,53cfc8c8498e3ae4a32a4ed0,j.boy japanese fastfood shop araneta center,14.671641517489748,121.05258804360801
411,4f4155abe4b0e40825ca8c83,fastfoodies,14.660947947281382,121.05312548721179
412,4bc7df7d15a7ef3b68537ada,mcdonald's,14.65389890068198,121.05338080434747
413,4bde01c96198c9b61a9712ff,mcdonald's,14.64467083255166,121.04986462321767
414,4bf3f9ded2fbef3bf5b7a4c5,mcdonald's,14.659837629837366,121.04447960958157
415,4d65bf104bfb2d43d62b38b4,mcdonald's,14.652912164748443,121.0335224451196
416,4ee9708d10812ca9f94147f0,mcdonald's,14.652943040773437,121.03365069172565
417,4ba69d8cf964a5201c6339e3,mcdonald's,14.654897247326378,121.03495998569022
418,53cb5433498e5a7d7afda001,mcdonald's,14.656194262002924,121.05545438176604
419,4ccaa8844703ef3b7b2f705c,mcdonald's,14.6641419860577,121.06781697828418
420,5bb2f788da5ede002c9df339,mc donalds,14.651899,121.035958
421,56ba91fd498ef7857e813bf0,mcdonald's,14.66014,121.044214
422,5bb9d12e2bf29b002d949c4d,mcdonald’s ayala malls vertis,14.651935,121.035892
423,5bc1e79de1f228002ce121be,mcdonald’s,14.651959,121.035798
424,4edf6160f5b93f54c4037086,mcdok's,14.65968023864893,121.06758298286525
425,4f43a36ae4b05efae86b74ca,mcdonald's,14.664894341498034,121.03846130967844
426,5374dd66498ec9a43ac2f8b6,mcdonald's,14.656822143177253,121.0344591141786
427,50570762e4b0978a10bc0176,army navy burger + burrito,14.657593960712594,121.05636201873486
428,4be904caee96c92846c3febf,burger king,14.652889429414365,121.03350384100705
429,4bc6f1c415a7ef3b1e7978da,brothers burger,14.652906348853463,121.03352507607423
430,4d170676f4ee6a3174b14812,brgr: the burger project,14.644455980825017,121.06092503402297
431,4dfebc281850c16c0236bd16,uno burger-megatent,14.65381436453819,121.0344672203064
432,4f93e948e4b0c03d2acbe5d5,burger machine pag-asa,14.661385480208581,121.03505263064088
433,527baa4f11d2b130749c8f43,angel's burger philcoa,14.652583225768733,121.05314228228573
434,53b1718c498e1ac3c13589ce,army navy burger + burrito,14.663485680332625,121.04402462390385
435,56550e71498ef5c43dcf6f79,burger king,14.645405995487925,121.05265401877688
436,5000fc9fe4b0004dbde27d36,nicole's mushroom burger,14.653380345217508,121.04907780606582
437,54d3627c498ea7b4a4cf2361,all american burger and franks,14.64867619111965,121.05689312342965
438,4ff834dde4b0463f71a6b324,big daddy's angus flamed burgers,14.644870157011018,121.05331615968979
439,4fad39aee4b0b0320d07fa79,burger machine,14.64923191663991,121.05551596250089
440,4f1dd639e4b0f67a9937f13d,angels burger sagana,14.66209501281468,121.05324865103303
441,55c9d4ec498e8fd8463199a6,jonelle's burger diner,14.659065432137295,121.0445820892621
442,55fd4d33498edff47f15ebb0,cheddar burst burger,14.66452576349361,121.04371571654355
443,5550b279498ea735c767226c,all american burger and franks,14.648673716541813,121.0568875252464
444,5a86b1f9911fc47c1ae25241,army navy burger + burrito,14.651993,121.035322
445,530b0c6c498e1e3ed378ae6c,burger matsing,14.661972390050567,121.05760409058595
446,53859c29498e93278432858b,burger matsing,14.662006,121.057578
447,4ce2ab0641ed224b8ffaf03c,burger machine,14.646347532966105,121.05259924037424
448,4f5c9cffe4b0b28dd4f39be1,burger machine road 8,14.661442641953736,121.04090924966185
449,50ab19cde4b0d787d025647d,angel's burger,14.661827087402344,121.04491424560547
450,51acbe41498e76e3347ba75f,burger matsing kalayaan,14.64701496046726,121.04664801234023
451,564b1f2c498e49ae638975f3,b stop burger station,14.645625919395497,121.05372451006751
452,50debde7e4b0748c6d8a4823,army navy burger + burrito,14.65370820431924,121.03387679330183
453,5061f68fe4b0b594d0f78f86,burger machine proj 6,14.6603386,121.0364715
454,530e54b711d2265761766051,abgel's burger,14.644928932189941,121.05095672607422
455,52864afa498e764aff73ded0,burger hub,14.642926770752382,121.05858580359626
456,4ea654e57ee5bebc949cd754,mr. 8 burger,14.64588,121.05745
457,4d4288be51cca35da03a02db,yellow cab pizza co.,14.658561506758145,121.04523282283273
458,4bc6f410af07a593e9427e2d,yellow cab pizza co.,14.657734875292881,121.05624343776822
459,4bcc4beeb6c49c74636e9391,yellow cab pizza co.,14.652921397205045,121.03354381760873
460,4bc9601a0687ef3b66f2d9cc,pizza hut,14.65754629377327,121.05619647170074
461,4db95e474b22a2fe44f01d8f,pizza hut,14.66375992233049,121.04379590353253
462,4d10686ba3d9721e36ded4fd,greenwich pizza,14.644861313866809,121.04810266284281
463,4ebfa2787ee54e4cd29cb49f,big guys pizza,14.661313628869353,121.04431334869686
464,4ed0e08a8231b9ef89179ff2,pizza hut,14.652914660532476,121.03352393035668
465,4dd32de6d16451f0c6c7b01b,angel's pizza,14.638117489542172,121.05422869297938
466,4c65158de0c4be9a9a2f8758,california pizza kitchen,14.653950785572578,121.03449594462583
467,4da830f36a2364c7a34deaac,yellow cab pizza co.,14.663093752457618,121.06825768947601
468,5958ac43fc9e94781465ff93,shakey's pizza parlor,14.670022083650986,121.04352815040937
469,5860b8de65e7c70a2f281f4c,yellow cab pizza co.,14.64674,121.052596
470,57c6c61d498e64f52e49d728,janecel's pizza,14.650578,121.05077
471,5adaf41379187109120e751c,pizza hut matalino,14.644707,121.048968
472,4fb8e303e4b03bc9cfaaa609,pizza san francisco,14.6592378,121.046336
473,5703d35f498e312ba1b3e5e0,pizza kreme,14.659908869852568,121.04651364443674
474,56e90192498ea03437349a94,yellow cab pizza co.,14.659896182953666,121.04649684843824
475,570107cc498e014fb0f54156,pizza supreme,14.660029,121.046502
476,522f08d511d2c78602ad0bd8,alberto's pizza,14.66758928667952,121.0432775721617
477,4f969f1fe4b036b6bb3e3aaf,pizza bar,14.645732,121.05682
478,59f47d25acb00b43e6b3504f,"rocco’s firebrick oven pizza, pasta & steak",14.64686,121.058837
479,4d5cb1bc590b224b7313a46d,benito's pizza,14.644752569567185,121.05461597442627
480,530aff75498ed3b695d2d457,alberto's pizza visayas ave,14.663067275447633,121.04387664400005
481,56090fce498e21a5ee784ca5,chuckie's pizza,14.64689446059308,121.05972577074546
482,50618e12e4b0699a763055ec,angel's pizza pasta combo,14.646545020384284,121.04394942822609
483,4fdb3095e4b08a6fe39b903f,lots'a pizza,14.664002854395463,121.0437982609382
484,51bd49e9498e9198bd28f76a,pizza hut,14.642576649334007,121.0522185497386
485,50e90ad9e4b0c990ee8f4182,lots' a pizza,14.667625298330728,121.05848299693297
486,4c304f823896e21edd69e590,pizza hut,14.666591585239704,121.04324340820312
487,4ffbab32e4b0f8c1517a37f7,bonchon chicken,14.657757354336477,121.05627378782022
488,4edca28b0aaf49e02c308d88,bonchon chicken,14.653537599654586,121.03461729217099
489,5958fb4bdb2aeb08865b8a83,peri peri charcoal chicken & sauce bar,14.653960377715782,121.03417989206125
490,55dfdfa4498eececa24efe99,parilla bacolod chicken,14.642622080215572,121.05730688762577
491,4d11f3cb1f95236ace683a06,ma chicken mami house,14.653190751262,121.03385762529402
492,4deef8c7ae609ae4fa3e0286,world chicken,14.652927258982443,121.033532867509
493,4cdaa37422bd721e13a7f047,bacolod chicken inasal,14.65384915152773,121.03444954882629
494,4d3525818c42a1cd2a3b015e,bacolod chicken inasal,14.649598783899767,121.04983771303769
495,59b38cde3c858d7f3be49699,salta! italian rotisserie chicken bar,14.648354,121.05356
496,4ca96acf44a8224b14792140,chicken bacolod,14.64489677859923,121.0512574871219
497,5a7ed9ea9de23b09d81d8f32,bonchon chicken,14.644692,121.049038
498,55164b56498eb43066ac931d,jordan's chicken java + steakburgers,14.659834209240731,121.04469164914926
499,4bffb192369476b05f1f8e1f,chicken house,14.655077930629973,121.04647445376997
500,5597d4d4498e6e3d3cc2ee42,griddle (steak x chicken),14.645914486571106,121.06050621401491
501,52c3f8f2498e40e97d4076af,bacolod chicken  inasal quezon city circle,14.649545669555664,121.04683685302734
502,5246c29811d2fc840eee919f,mang toto chicken bacolod inasal,14.659965281879314,121.04458768801749
503,513eb688e4b0eafcd694e3f3,mang toto chicken,14.660109,121.044563
504,5a62d0c44f0e5838cecbff87,ma chicken mami house,14.661011,121.06392
505,51c2832e498e76b415c7dc32,toto's chicken inasal,14.660665652708595,121.0444309227679
506,5a2bbffe625a6621fcb378d8,bonchon chicken,14.651995,121.035306
507,4dc769dc2271f270515d6674,andok's bbq chicken,14.661599145212193,121.0440949965463
508,570c8d69cd10fc7467499b90,bonchon chicken,14.653903,121.034727
509,5b44530f2463d80044e1775d,bon chon chicken,14.644683,121.049012
510,4f994284e4b0bda8881a3d32,chicken joint,14.6453,121.057099
511,53355d37498ec14a1e629831,homies pinoy fried chicken,14.646810207945688,121.05979294734256
512,5344df3f498e555a4e2c62fa,tornado peri-peri chicken,14.646075457068182,121.0602697001177
513,4e6b4b4f227162c38ecc3b62,nato's chicken inasal,14.662421552981478,121.04153632776139
514,5902fed20d173f58d6fdf249,bonchon chicken,14.642932744441113,121.03918154437429
515,551145ee498efc6dd190d566,rojo oven baked boneless chicken,14.645736595390078,121.0606694177291
516,556af409498e7bfc8338141c,rojo oven baked boneless chicken,14.645765747485584,121.06070483645773
517,5b54337890d1ed002c14e3f9,muñoz food court,14.65728,121.020204
518,5a0eb97a112c6c185ed3a20c,food choices,14.659313,121.001015
519,5281b91c11d2c2398398b595,s&r food and beverage,14.659638673927256,121.01949073782576
520,57ef96be498ee915d2eb8c93,el fresco food park,14.666284209720063,121.02125319882468
521,52e5c2cf498e7a47619c34d4,s&r food service,14.659578275007709,121.01938505725562
522,508e7f68e4b09ddc8002302a,shuin food products,14.64925956726074,121.00540161132812
523,57f23643498ef6153818635c,seoul food,14.649025,121.005868
524,4ebe710f9911a2ec5b5a6dab,food talk,14.670577975001587,121.01163451263328
525,4fe38f42e4b06e75a6bbb615,outback food strip,14.65813,121.02336
526,51fe5273498ebdc46f5aa641,young master's food house,14.665109634399414,120.99717712402344
527,5314805c498e7708ef7461f6,food house,14.652876,121.02553
528,5a82497b3c858d34260dccf9,edrich food corner,14.670202,120.998402
529,51da4e05498e20fc006fe6eb,joax ingredients & food devt. corp.,14.653555870056152,121.02645111083984
530,5152b7fee4b0c498f0eb931b,s&r food court,14.651337807734448,121.02584719774093
531,4e3a897788772c3bf122fdf8,yen food house,14.656829,120.992546
532,516a9a3de4b0726c35e81bdd,mayim food station,14.655971796770933,121.02841179888094
533,59df5172f0ca953ef1cc5fdd,"baliwag lechon, sm north foodcourt",14.658148,121.015746
534,4f59ba9de4b0bd7c8581e266,enzo's foodshop,14.648611235561448,121.00452194277493
535,51318966e4b01d3a663d8a61,sm valenzuela foodcourt,14.669229275778468,121.0000189658742
536,50cfc74ee4b0a46c0086894d,la boca foodhaus,14.650785446166992,121.02297973632812
537,4ed8cd2b6da1642c5ab5ff7b,jnj foodhouse,14.654302235685115,121.02528163426214
538,538f05d7498ed4ff969d5d3f,purefoods deli,14.65441096759759,121.0252984332155
539,52a3459b498e67c5336610dc,j&j foodhaus,14.65143929271772,121.0251920398046
540,50a700b5e4b0ed1fd8132092,fruitas foodcourt,14.66245455206526,121.02807022851192
541,4deb479922713dd973aa10cf,mcdonald's,14.657641331088694,121.02039410153888
542,4dfd972ee4cdbe059c3d42bc,mcdonald's,14.657355014569239,121.02106435642384
543,4d5f98ee338bb60cbcd41dbd,mcdonald's,14.668141719630794,121.02049868492321
544,5496307a498e427c850ed74b,mcdonald's,14.644279930752372,121.01550311988359
545,5a0e9221cf72a0416c4323c4,mcdonald's,14.655804,121.000234
546,5a140831826444510b0bce05,mcdonald's,14.655022,120.999417
547,4f9f60e7e4b05255284832b1,mcdonald's,14.656859229623175,120.99323057968276
548,52ea8c0b11d2e5da9411d27e,bypass burger™,14.663897543911178,121.02352155294132
549,515a90abe4b014d7005c25a6,angels burger,14.655848239976258,121.01086167096695
550,4b9bd605f964a520322b36e3,burger machine,14.653617384345699,121.02038743965724
551,524b7b7511d21a027f4fbc5e,burger machine roosevelt,14.65723952435423,121.01734666739105
552,503b2a8fe4b0975cc38cb7ed,minute burger,14.659518154923816,121.01955305488634
553,577db0be498eb0509462bddb,minute burger,14.658846,121.02045
554,4f0eb7d7e4b04a8cd8e690ed,galaxy burger,14.648488706697513,121.01264255955701
555,50499d75e4b0f62439975e43,burger machine - a. bonifacio ave.,14.6544981604359,121.00020939366277
556,5216e3bf11d29f200baf3b2a,mohawk burger,14.649138450622559,121.015625
557,556edf56498eedd7a705c512,arsher's burger,14.660348892211914,121.02143096923828
558,53e312d3498ebc04188eb2b4,burger bar,14.652822324639967,121.02000104742608
559,4e1551b1d164535f061aa047,burger machine,14.655142065507686,121.024738466843
560,575f9045498e3b56a29f93f2,zark's burger,14.656462405805604,121.02847350549868
561,4f8e66eee4b047e9ee44aadc,burger machine fort santiago,14.658054655095896,121.02295775651925
562,55d6ceb0498eeae64f202a39,burger king sm north edsa,14.66558796519943,120.99545421013319
563,4d8f05e8d4ec8cfa37de8189,burger machine bansalangin street,14.657143649534412,121.02311454967746
564,501fc673e4b0dbd442bae6fd,burger machine,14.659598,121.0238767
565,5155ca2be4b0e990ed18f9f3,burger machine veterans village,14.656277,121.024064
566,57cff1e2498ebb18de9cf992,muscle burger,14.66401,121.024389
567,52e4fd8b11d227b77db671ef,angels burger bago bantay,14.659814834594727,121.02558135986328
568,4f0a0593e4b0d6422c7f817e,burger machine,14.654587596678669,120.99523774932396
569,51e81343498e11c863fc1c13,angel's burger,14.66030854511031,121.02589199473493
570,4ef0c3688b81e3067f90e606,burger machine,14.671813877354499,121.01836586662189
571,5074d05ce4b091d9363ba622,angel's burger,14.66491074160136,120.9955550286825
572,56c82de9498e6709ee5a7a7d,z & m burger restaurant,14.652001403832427,121.02525363600128
573,53fb939c498ea719e0927f44,burger machine,14.657663,120.99317
574,5149e74fe4b0994d7952a0fc,angel's burger,14.6695753,121.0245181
576,5631d995498e035e5a363505,burgerboss,14.665068681058239,121.02204183483681
577,4d46d7b77e2e5481f1ae778f,angel's hamburger shorthorn,14.668206964802465,121.02028104191979
578,508e4192e4b09bdc37e78aa5,s&r new york style pizza,14.659628533356772,121.0194623639835
579,4f28e71be4b092dd9cfba268,pizza hut,14.656431819174417,121.02856527855582
580,5316fcfb498e782371238735,pizza hut congressional ave,14.660146950798623,121.00947838405816
581,4fc0a721e4b032785150f1c0,s&r membership shopping (new york style pizza),14.659439971871722,121.00036061551677
582,50823d72e4b05283701192f0,aaliyah's pizza,14.656075085189945,121.01117528847055
583,5acf1f3e9b047325255c8475,domino's pizza,14.65717,121.01982
584,51347060e4b02d07eea0e67b,chef boy pizza,14.654617,121.018635
585,59f4775b628c8355f80c5677,shakey's pizza parlor,14.655753,121.001214
586,4da17eb40f578cfa90658d18,pizza hut,14.66009349234512,121.01974905182689
587,59c0b452e97dfb7c50ea1e8d,r. reyes pizza hub,14.669071,120.996987
588,58c8febe11742071fca0ccbb,santino's supreme italian pizza,14.657473,121.021151
589,4da44d4abf22a143435cdaf8,fatboy's pizza,14.668362649374991,121.01941865680047
590,51b16c93498ee7539037af64,pizza pedrico's puregold balintawak,14.65545398612182,120.99680405152782
591,549942ae498ef62589075237,yellow cab pizza co.,14.656565309411512,121.02869868372859
592,562ceeda498ee3e1cc3e8ca7,pizza monte,14.660035,121.026564
593,562ceeae498e2fe30185f028,pizza monte,14.660119024117352,121.02656394765016
594,525cc2bb498ecc59ab2066bd,brooklyn pizza,14.656451452534988,121.02714723704334
595,50f50a06e4b045372c81b78e,"pizza hut, sm north edsa-annex",14.656494082060096,121.02857578429897
596,4d6448284e1ea1cdffde42b9,shakey's,14.657377093663392,121.02096568060908
597,57e648a9cd1097b6a69c1dec,r.reyes pizzahub,14.669357,120.996987
598,57e25765498e1e080b064369,manang's chicken,14.657746,121.020865
599,4f793962e4b06ff837d810e7,bonchon chicken,14.656583064478205,121.02868761177706
600,4e7d5b0f5c5c2c25d48c8b63,manang's chicken,14.656467319392346,121.02757199975812
601,4bf8dc8892d195219c4f5a1f,peri peri charcoal chicken,14.65642625358506,121.02853255873531
602,59fb1268b546186edb0a5aba,hot star large fried chicken,14.655673554727729,121.00115720751621
603,5742a866cd103de629eacfb8,bonchon chicken,14.657136873120438,121.02101862428833
604,5a004e44f193c0289715c2bf,bonchon chicken,14.655146,121.001363
605,5a4389b8dee77009c77ae0ae,maskara chicken,14.658092,121.01992
606,5a50b3739e3b654ba5544a33,jo frango flame-grilled chicken,14.65556,121.001105
607,50796b2ce4b0109f35566c9b,omma's chicken,14.649042859114285,121.00533402898506
608,4e26d009149503e37199b6da,chicken deli,14.656470345221214,121.02866595260845
609,4ed1d4a38231b9ef8a5b3d90,chow roasted chicken - sm north,14.657420155565815,121.02264416959208
610,4fc228a1e4b09ab6886841e8,aling remys crispy pata and fried chicken,14.64506345103807,121.00825749420882
611,5baa1eb14c954c002ce1b1d6,madikenz fried chicken,14.670182,121.019259
612,50a9c2afe4b006e1c2d6c4f6,rfu fried chicken,14.671349314512767,121.01857306541402
613,53b004cb498ebebb7be94832,chicken inasal mindanao avenue,14.67099,121.022171
614,4e5c6f5745dd045aab4e988f,chicken deli - sm north annex,14.656358465044214,121.02861898043706
615,4e9192abbe7b7962e9f4d6de,max's restaurant,14.657113504067379,120.99182028820296
616,55d739b9498e5ac9273ad9f3,chickilicious,14.656487269908268,121.02704965371026
617,4d8d7b65c1826a318bef7ee2,classic savory,14.656447645813277,121.02865035759345
618,5b7504101ffe97002cf51449,nihachi japanese food house,14.648074,120.97342
619,4fdc6ef2e4b07b2b86739667,tonglao food hauz,14.648666444203958,120.97297518119599
620,5b8a4d158c812a002c3bd1db,p zamora mini food park,14.648202,120.974049
621,5328503c498e237e9f6bc21f,lj food house,14.642889976501465,120.97413635253906
622,4e3368697d8b6946c1eecfed,macaroni food cart,14.650868,120.97627
623,574186c9498e565e23073cb9,ozen japanese food,14.658198667543019,120.97166428944702
624,5382e1c1498e1eadd02c4a6b,jimlet food house,14.650237,120.977876
625,503d0186e4b0490ece777523,jonry's food & drink station,14.656023497085597,120.96977635642116
626,5ab74bc8ccad6b5d769766ec,food central,14.655824,120.98252
627,58e4b33b113efc7e25361f4a,the red yard food lane,14.656352167307052,120.97191078300708
628,503d02e4e4b031746f8541f9,jonry's food & drink station,14.651486013305096,120.97935577257034
629,55c4a1a3498e41b9b1e78bc0,mr.  kimbob korean health food,14.657897999814285,120.97553530073041
630,52ecd41b11d232d838a48b2a,chopsticks & spoon 168 food court,14.658973013264461,120.97174832141012
631,54bdc55b498e4cbc408b113b,open up food,14.653087,120.960052
632,508605f9e4b06d489d13b07e,victorian food,14.647847595066803,120.9838774922919
633,4e03e978149509caec70463d,tito king's fastfood,14.650854,120.97633
634,56321837498ea2b7141df93f,itikan at kabayuhan (exotic food),14.632928316830812,120.97364742787616
635,57da0bb7498efddeb8f56591,malabon citisquare food court,14.658267,120.96121
636,5a1574332aff314825bf98c3,banq8e food bazaar,14.65472,120.983653
637,563348b4498e7c9216c43bed,food heroes cafe,14.631626,120.97402
638,566425c6498e19a9837b4ad4,food trip sa rosalina,14.63079911786589,120.97453254699464
639,59571b9735dfa7647d3a12d8,iam's food house,14.654376,120.954336
640,4f8ef53fe4b0d35b8089959b,candy castle food industry hq,14.65104047422524,120.98882240573239
641,4cf0f53d8333224b5f53078e,silver crown restaurant,14.657210225306793,120.9810206464912
642,4ca5aeeea643b71309b2e6a6,best friends,14.646547403172693,120.98622584589668
643,58777d38e309e12440d74407,foodiary cafe,14.655368,120.97169
644,591a72cd65211f3c8c75ec93,hanzking foodnet,14.657404,120.97729
645,553cc4e7498e04e9286e7514,gk foodstop,14.637071,120.980584
646,4e7bfabae4cd6279fad1052a,cdo foodstore mento,14.657124,120.980907
647,510c9b6fe4b045d33750d224,"foodcourt,mc",14.661674499511719,120.96023559570312
649,4bf99a8a8d30d13acc830218,mcdonald's,14.657205829807053,120.98549331711713
650,4f272ce2e4b08842e6c24d2c,mcdonald's,14.65570452434472,120.98361630369524
651,54896ce6498e656189086055,mcdonald's,14.650939984523196,120.97309379034687
652,59c2089d6adbf574388a6df4,mcdonald's,14.637668,120.975665
653,5a8c4b8f6a5950546fb6cfca,mcdonald's,14.640387,120.97191
654,58727c68005a0f1e45148a58,"mcdonald's 10th ave, caloocan",14.650976,120.973
655,5a8c4b4f3b4e00284eb00fe5,mcdonald's,14.640172,120.97164
656,4dd33276d16451f0c6c812bd,mcdonald's,14.653967469283726,120.98395916632933
657,51d0cea4498ee1b8a3063dab,mcdonald's,14.654401373451321,120.97950141867676
658,5593d9f1498e5d0d8400b58e,mcdonald's ice cream store,14.632693268203212,120.97685175255549
659,4e060f311520fc3138eff1d9,mcdonald's,14.655381716037597,120.98454594612122
660,4ec9670a8231143e5041d0bb,burger machine,14.644910321251349,120.97512635746969
661,51dda553e4b0326a7eb7eb87,burger machine c3,14.645813,120.972985
662,4f81d021e4b0fc8b19d1fe35,kalbo's burger,14.649852516260863,120.9728855480241
663,59d41196ccad6b028b7fdea5,angel's burger,14.650648,120.964935
664,5a6f17619cadd96607a0232c,chie's burger,14.653516,120.972983
665,55f96f69498e782aca55087a,highway burger,14.656828691915441,120.97152423609216
666,56cb14de498e815bf2b72620,88 burger,14.641294,120.974888
667,55e6d832498e39a8639fe23b,chie's burger,14.653337578740631,120.96606202860673
668,55ef9d37498e4b23fea38414,minute burger,14.657727122328652,120.97584340775653
669,59632002f00a706a9420032b,"angel's burger - 10th avenue, caloocan",14.651695,120.9794
670,4e18d03952b123a586db09e4,burger machine,14.643953,120.980464
671,54b64f03498eba80d1c529f4,angel's burger,14.651658,120.98022
672,572321c3cd10f8004a20c611,madz burger bar,14.657862317069233,120.97089119283486
673,4fec735fe4b0f580995bbef2,angel's burger,14.657758627678389,120.97303120189486
674,5a5e0ecc97cf5a0962f4ff32,burger browser,14.647936,120.98252
675,5145eb1ce4b0ee655639ce78,burger machine,14.653720202313936,120.96066680724508
676,4f42a220e4b0f4e3fd7a2e6d,the burger connection,14.654968,120.961669
677,561e17a1498ee88c97d7973d,rancho burger,14.658125561354906,120.97553530073041
678,4eac28de61af01ea2b16dd73,angel`s burger,14.65974792929543,120.97140659113471
679,56e9102fcd10ab5bc9772976,rancho burger house,14.657407,120.978738
680,57d2a65a498e5dd378de98a4,grub burger,14.634269,120.96802
681,50e7dc32e4b0aa6ef8af4e96,burger machine,14.650193,120.984012
682,5a9d5c02a9fe1261ec244d5c,four13 burger,14.636963,120.981162
683,58a19681f776b07707d033e6,monster burger,14.655452,120.98271
684,509dbcfde4b007e3c160fbe9,aling gloria's burger haus,14.631766319274902,120.97149658203125
685,58a861752b04f873c3a9d5cd,one 6 - burger bar,14.630386,120.974556
686,578b85b8498edb9740ce9ca8,donjar burger house,14.629936,120.965797
687,56fe172c498ec8a0f9c4540d,jordan's chicken java + steak burgers,14.642426663986077,120.97559132024787
688,50102baee4b0e575283b292a,kaliburgers,14.649410704786472,120.97448212899032
689,59672ee62955134b2c875d08,headquarters burgers and frappe,14.651493,120.97582
690,4df7a155d22df20cc2d817d7,pizza hut,14.651556002460742,120.98318906571792
691,4da17cf5b521224b8a76f5ed,pizza hut,14.65505738748488,120.96167892620417
692,5abe0fa2f0b4906871b93cef,pizza hut maypajo,14.647783,120.968351
693,578338f6498e15a556ff185d,angel's pizza,14.651647,120.972357
694,553f9bc1498e6cc1b6d39289,dexter's pizza,14.652094,120.972321
695,517cff8a498e0a55feaa53be,aaliyahs pizza,14.652740478515625,120.96997833251953
696,508113afe4b0e5cc99d45052,lots'a pizza,14.651533145377172,120.97552409682382
697,4e0f961352b1b27c1b923bbe,fiesta pizza cvc,14.650842,120.976295
698,4e1114f8ae602afe96ba7caf,pizza hut avenida,14.650866,120.976295
699,51939858498e562bcf2a7915,lots's pizza 10th ave. caloocan city,14.651294,120.976418
700,5bc86b7165211f0039c26d38,domino's pizza,14.657563,120.97744
701,4d83ab2a8de9721e5e2d2151,mary's pizza,14.648981,120.978113
702,4e10012722713f7d7bc4f4d7,lots-a-pizza riles,14.651749,120.977175
703,4e0a0ca87d8b2a01806c637b,lots-a-pizza 10th ave,14.652932,120.977446
704,56820553498e4732a215432f,angel's pizza,14.65849615979711,120.98402901304331
705,59d22dd741868645c6118780,cornelio’s pizza house,14.638394,120.975527
706,4d7c8de2645ea35d974248f8,aaliyah's pizza,14.636097697671449,120.97904551991392
707,4f61a1c7e4b060c1924c9a98,pizza pizza @ grand,14.651161193847656,120.98424530029297
708,514bf92ae4b086a3093ac49f,lots'a pizza,14.657751,120.961253
709,4fc0f204e4b0cec931feae31,chansel pizza,14.657492144121697,120.98218463681599
710,4f61a251e4b071dd73482432,pizza pizza @ grand,14.653473854064941,120.98582458496094
711,5943d9cc840fc227de22e6e6,pizza•pasta,14.6579,120.9831
712,5542e689498ef2b968672082,pizza hut,14.6309244377137,120.97228052238297
713,4f5dab8de4b03690721722c4,lots'a pizza,14.663914418883202,120.97024694188413
714,4ccc6aef2b889c74e739a35c,lots'a pizza- gagalangin,14.63026122344788,120.97419261932373
715,525e8d09498e676df8a2cdd0,lots'a pizza,14.630047293782862,120.9741964265704
716,58288e198edd3a34fb67ba02,yellow cab pizza co.,14.65741,120.985384
717,4e1fd2aad22d0a3f59e7934f,greenwich,14.657572653322644,120.96121006877338
718,4e0ea19f62e1d5a30d03c70a,fat boi,14.655236399151619,120.98470687866211
719,4fc8ef5be5e85bfe35ed5d57,kevin's roasted chicken (laon-laan 4th avenue),14.642884111653446,120.97526550292969
720,4fdb09534fc6c51b2a7ddbe8,savory chicken,14.644441296938632,120.98399795607786
722,57945346498e08d5d0b7e2e2,bonchon chicken,14.6582985,120.97181
723,5ae2fc7e1c062d00248dcca0,hello oppa unlimited chicken!,14.657507,120.97793
724,522def3411d22b5c339b6e19,senior pedro roasted chicken,14.655903,120.969701
725,5791e084498ea41194e87d1b,bonchon chicken,14.658141,120.971674
726,50076e97e4b0dde024eadc34,kevin's rosted chicken,14.636054403045504,120.97906612741096
727,4f24b1ece4b02a95feb966ae,magnolia chicken station,14.633448284750866,120.9761683197732
728,4fcb33f9bb3d59690cb4c8db,kesha joy - grace park caloocan (kikiam chicken balls squid balls gulaman kwekkwek and cheeze stick),14.652579159099627,120.98479270935059
729,584e1f2291936a157013d8f0,jordan's chicken java + steakburgers,14.657646,120.981563
730,59d0c9c29b047349918ba7f2,bonchon chicken,14.650198,120.987305
731,4e2b82f2d4c0e5c89ac62771,chic-boy,14.655070322592467,120.98369836807251
733,548ac750498e0544eb264b7b,recovery food,14.649932920771736,121.07499707767552
734,5bab22d3e96d0c002c037e58,casaa food stalls,14.652676,121.071345
735,545c4b62498e8340b0887fd7,tanengs food express,14.622195492767583,121.07177777122526
736,4d8ae42826a36ea8e028fead,food camp burgers & sandwiches,14.620427829145633,121.07273303563242
737,58b502c35eef111ec55cc22b,ricetop fil-asian comfort food,14.636226,121.073631
738,58fd8d856dcf0416572450a4,kantorini food park,14.633364222088124,121.07508652697075
739,51e0da95498ee38917be6a7a,queens ny comfort food,14.637779,121.076241
740,58594fb772714f34b3d98908,hongkong foodie street food,14.634803,121.07158
741,572187d5498ea8de6baf707d,bagets food corner,14.632391,121.073912
742,506d3633e4b0e097e4d9e1b0,lot's a pizza 4th floor market market food court,14.640501152210776,121.07338424015111
743,4f35fa10e4b0b0eb8ba058f2,belcap food warehouse,14.635111638929766,121.06970668202699
744,50385af8e4b00c877a8ea514,harvester veggie food express,14.641049995272306,121.0739887594796
745,50494668e4b0f91f8ed038cf,bicolana's food express,14.630852,121.072933
746,5194ea82498ef32aa1214c24,riverbanks food station,14.631074928417773,121.0827259628592
747,50c1541de4b0fd98003c0d73,miriam food fair,14.642146434108527,121.07610186046512
748,5b855222e1791000397078e0,j-pax food hub,14.624269,121.071495
749,4d67a0b4709bb60c49cdab14,sm foodcourt,14.625927448795014,121.08373365928944
751,5a03938326659b222921afa1,le marhiz food haus,14.629041,121.069302
752,55930db5498ec2ba80d663d5,fotg (food on the grill),14.628832,121.069619
753,5ab5ed3f0a08ab3d01825e1d,secret food garden,14.644536,121.070459
754,5ba195bd5c6838002c8e0aec,popoy en basha's food house,14.62443,121.07171
755,56519d4d498e05915a09fd84,mr. kimbob (korean health food),14.62609667552044,121.0837446088519
756,513f3ae6e4b0ab91531a1ff5,san mig food ave.,14.6289924102785,121.06775870609702
757,513ef279e4b0176841bb7c9c,san miguel food avenue,14.628992805274033,121.06761876408187
759,516bfd4ce4b08edf15478270,jumbo food caterers,14.63601216120331,121.06393543166826
760,502decc5e4b04d70bda3af39,kuyang food trip,14.646268,121.075064
761,511e4272e4b07cd153ca1c4f,food station,14.630963,121.083178
762,4b4ffa7ef964a520b01a27e3,mcdonald's,14.635970606737827,121.07419026524633
763,4d2149f82fc48eec600078a1,mcdonald's,14.62788634664228,121.06332289394618
764,54d585d2498edbb43b6b447f,mcdonald's,14.62782650105312,121.06446797652586
765,5af4c172dd8442002c25da33,mcdonald's,14.634112077964465,121.05777814199486
766,5052b6a4e4b0c6b684cc258a,mcdonald's,14.618737880486654,121.07210626492932
767,5a0f6e156cf01a1108233548,mcdonald's,14.650697,121.075346
768,573e524e38fa1dbdf985fa77,mcdonald's,14.65119679696035,121.07529773239492
769,50964efae4b09283703cfbc5,mcdonald's desserts,14.634660791623414,121.06398581235607
770,52d7adc0498e4204fd70ced4,mcdonald's,14.627901921842938,121.06452880287402
771,540f1b24498ed28dab12bf33,mcdonald's,14.627878,121.063175
772,5864c0a3076be150f6121af9,mcdonald's sm marikina,14.626206,121.08402
773,5aebefb40d2be7002c2923c7,mcdonald's,14.633946434457318,121.05762004852295
774,565b69f4498e840927564188,mcdonald's,14.625227015530385,121.05997768279111
775,53ae8c24498e1d9ef5dd4e50,sango! the burger master,14.637145672409536,121.07436458344627
776,573d1dc1498e40c33993e229,burger king,14.651090234634372,121.07507129970507
777,4e5cb5c5fa76f39e1cb82399,angel's burger,14.629878719113075,121.06539086525707
778,574a3d11cd1031dbbaa8f92c,army navy burger + burrito,14.637215234277884,121.0744551472922
779,4d1ee00ed7b0b1f750a5089f,wham! burger,14.62590409769176,121.08372222112085
780,574d5f0e38fa94355b6082df,army navy burger + burrito,14.637129,121.07408
782,4ddaa12ed1647fcf3e95fa35,angels burger sikatuna,14.636169715135903,121.05818069864723
783,4cee51054cd4236abf1ead63,big better burgers,14.637722732227184,121.0743313190684
784,574ce77f498eeac0d9907ffa,army navy burger + burrito,14.635126,121.073978
785,4cd274962436b60c33fc84ca,crave burger,14.636074485866269,121.07323050498962
786,5b26ac26f5e9d7002cf2aa6c,burger king katipunan,14.635129,121.074067
787,5179b4a9e4b07597a72e2f05,angels burger,14.63470063850404,121.07105569282868
788,4f66ef03e4b0746beaaa8845,"burger machine, xavierville ave.",14.634844345354836,121.07066386552577
789,55a48aec498e0d262bfff5e3,hangouts burger & grill,14.640261117269345,121.07419026524633
790,4f7d7731e4b08ccdc5e906df,burger machine,14.634920514827721,121.07024964670195
791,58f095aea87921657874caae,minute burger,14.628876,121.064314
792,578116d4498ee7f6a8e02f40,dad's burger house,14.632207,121.079785
793,57e0d712498eb3e3ba167352,chevy burger,14.633922,121.08561
794,4feb0562e4b0483348dc26a6,3m angel's burger,14.630685580401833,121.08030804324511
795,56406d25cd100e6ce2520093,barney's burger,14.628744053956796,121.06963951096883
796,51b5a6bf498e238474b44976,angel's burger,14.628281384107337,121.07001454889642
797,57b2dfe8498e9a05e96d73f1,monster burger,14.631225,121.082623
798,53ba1e89498efbd69a9e17d7,big b burger,14.64601091335462,121.07230393414521
799,4ed5f7f0e300d4f603e804bd,buchukoy's burger,14.629899878569557,121.06635952197524
800,5250f23611d215a383428b79,burger matsing scout ybardolaza,14.628961696276663,121.0650102150968
801,5bd1c8d7b546180039560be3,minute burger,14.628061,121.06583
802,4fa69a6ee4b012fefe3397fc,angel's burger,14.624232993892754,121.07284128964231
803,5b3f86703b4e00002c7375b9,53 burger station,14.624870712340373,121.06989048421383
804,4ee3dd894690f8893ffdf45b,burger machine,14.635645691479334,121.08689004354088
805,4c7211b44bc4236a6875ca7a,yellow cab pizza co.,14.63914999489098,121.07447390875977
806,4bc83168af07a5933871802d,handuraw pizza,14.641368572985266,121.07448041439056
807,55bae834498e6da67489b4e4,s&r new york style pizza,14.64976027000989,121.07491674784762
808,5885e7892f91cb3bc742ed1e,gino's brick oven pizza,14.639581830626245,121.07442535485568
809,4c077fb642d4b7132eacf445,pizza hut,14.625947827001541,121.08368051677046
810,525e653811d26d68dc591a8d,steveston pizza,14.649644830267244,121.0744571454287
811,4eb3a87acc2143e827319a91,el bonito's ultimate pizza experience,14.625319833593245,121.08424273478785
812,4d6daf7b134ea143dab4841a,calda pizza - katipunan,14.6202476198399,121.07269762189391
813,56dae4a6cd102abc30ed9817,amotore pizza garage,14.635956,121.072992
814,51e3a582498e535df07c2469,lots'a pizza,14.637874,121.074225
815,594a64629d6a191e6481ab9e,krispy tomato brick oven pizza,14.640133,121.07445
816,5119dfd3e4b051a0994b117f,pizza deli,14.634854316711426,121.07034301757812
818,514aafdde4b0f4e8afa15d91,santino's best slice pizza,14.631509780883789,121.07231903076172
819,50f51f3ce4b04c8b3d6e7e34,lots'a pizza,14.631101944728455,121.07449812062605
820,5618f5ca498eb3f7ef225871,pizza hut,14.635612334301495,121.06826249600246
821,54267125498eb51b69dd5153,yellow cab pizza co.,14.627734741979467,121.06431551277637
822,4e2107e545dd950bb021765b,woodbridge pizza,14.629856365508157,121.06919646263123
823,4f33bf24e4b0b5f6ded81954,pizza hut,14.636393242971987,121.08336401685554
824,55472282498ef5c9d2b5cd98,dexter's pizza riverbanks branch,14.634134577839925,121.08320730215324
825,4fc86eebe4b01d2b69682a12,lots' a pizza,14.63188,121.08269
826,4cea809ad99f721e6dd7bb73,shakey's,14.636277918794995,121.07414904190522
827,51bc552b498ed2fdd934b961,santino's supreme italian pizza,14.631132974659769,121.0828602902983
828,522c5073498e5a05753c1805,lots' a pizza,14.626794,121.070159
829,4f746304e4b0d6e33a6da147,pizza hut,14.639678887476077,121.06305096726584
830,56825efe498e8c16efbce913,domino's pizza,14.62154015852435,121.06387293047848
831,56bd60af38faa63c955e0845,czyrah's pizza,14.624873188745743,121.07110047301049
832,53380881498ebc33d3111c52,lots' a pizza,14.6240566525638,121.074039135953
833,5a8981ab51950e7c14ea2bbb,shakeys pizza parlor,14.649338,121.07469
834,4ee96288e3001405fd1d3ab0,migo's pizza,14.645591703505998,121.0639522252332
835,4e7bfbf1183878cd62cc865f,manang's chicken,14.637986915884797,121.07441024315378
836,4e5dc97362e121012035ab28,bonchon chicken,14.640900214712234,121.07453551807524
837,57ab1940498e29d9803b28e8,peri-peri charcoal chicken & sauce bar,14.651498088429491,121.07548251202743
838,50d5bb5de4b0ab0ed6926f7f,bonchon chicken,14.625523286487851,121.08439821489435
839,58b960eb46563a69c6562d08,gringo chicken • ribs • friends,14.651410410851962,121.074684362764
840,4e63432ad164ddd5e6203600,johnny's fried chicken,14.632919,121.081181
841,5757b0ad498e8dedbd5e62a5,bonchon chicken,14.650951683003452,121.0752151183168
842,4f685332e4b05064752c3d67,chubby chicken,14.636412677751705,121.07298833079089
844,4da43e1222a5f04dc6da3355,chicken bacolod,14.639576136275702,121.07439687462643
845,5b907758336273002cced1c7,tetsuo fried chicken,14.641189,121.073204
846,58ca634802b60e51de67eddb,famous roast chicken,14.634028,121.07294
847,5416c860498e1a135c01c29d,kentucky fried chicken,14.639844154413753,121.07413988883634
848,59aba6378d1070397ae140f2,bonchon chicken,14.632041,121.08293
849,5a35fcfee7a2371f6a3288f1,peri-peri charcoal chicken & sauce bar,14.62589314694178,121.08395476443219
850,5bb31e494aa3f8002c6900ae,jordan’s chicken java + steakburgers,14.628839,121.069528
851,5975764a1fa7632be217b948,bonchon chicken riverbanks,14.632036,121.079236
852,5336b74911d25f69b3e8007a,purichay's chicken inasal,14.629363059997559,121.06997680664062
854,4dbe8ce55da3ff58ec7bf56b,bacolod chicken inasal,14.62580458818231,121.08392802621665
855,5201c6fd498e10d4efb8e037,br chicken house,14.631949312882233,121.0647639114097
856,501236c8e4b0dbe1577437da,camp tribu fried chicken,14.62917709350586,121.08238220214844
857,504d6b3de4b086a8fae63b9a,chicken inayaki,14.639771504119064,121.06298379248844
858,56053985498e5344a142e660,bonchon chicken,14.6255,121.084264
859,50846091e4b0524966592910,chicken inasal,14.639621,121.062918
860,50d01df6e4b0ce0a773f40fc,popoy's fried chicken,14.628621025127819,121.0645294189453
861,51262d06e4b02683389879e0,chickenzilla,14.635318969017334,121.05858936095983
862,589dbf6bf63c544cbe29b31e,wild bird chicken comfort food,14.6382,121.061177
863,543a2daa498e48b8d422bf9b,gostoso piri piri chicken,14.649781157998198,121.07489553276758
864,50710641e4b0559b4d98fb0a,camp tribu fried chicken,14.635708825075158,121.08838437596057
865,5a0a9518d552c77ae398a84a,eat fresh hk famous street food,14.649486173978147,121.1119924497619
866,5a913311838e5950a56708bd,food choices,14.648397,121.11545
867,58a6d81e5e789672b847c910,food alley,14.650135,121.114131
868,5976dcedbed48337895a8456,food spill diner,14.647068,121.116486
869,5b4f36d8835c9a0039f255ff,miguelitos food hub,14.644222,121.116667
870,50015f78e4b077d34fae75dd,wilbur's food stuff,14.646959433010494,121.12089128680108
871,5584050a498e5578c4f2a4b4,urban street: world's best street food,14.644953081451192,121.1201435376502
872,5777b020498e1059e4a6d93c,tobito food hub,14.644605,121.12027
873,52d6091111d269778da3a046,tiffany food,14.648166,121.112316
874,5062e511e4b07905747f8dfc,#foodtrip,14.64540250274583,121.10745646567266
875,5067c823e4b0d34395cbe9a8,kabise food co,14.640420959800108,121.12175853908613
876,582051ca8edd3a4c17126232,food truck manila,14.645389191747551,121.10751242390846
877,5731db3a498e11c0ab90c0f2,tres food house,14.658904,121.11118
878,507951d5e4b0e942472b17c2,isis food hauz,14.648610787730403,121.10385829618947
879,523acc9711d2c0976f7177b8,burgreenos diner / 3c mix food kiosk,14.656524,121.106494
880,57c1a31c498e926bc019756d,marikina eat street food park,14.65073,121.10285
881,570b63bb498ea5a8482b3d79,full stop food house,14.660001,121.10848
882,5a5f162b9746170af45d6462,foodtrip,14.648618,121.11597
883,515aa844e4b0f68bfdd4f629,new city foodhouse,14.650742,121.113253
884,500969b7e4b0a27e00e7614a,"inihaw express, sm north foodcourt",14.655266375598112,121.10729418664089
885,4ee9f4664690034a7f8d43a2,chow foods,14.635876918094066,121.11871473560953
886,51883526498ef412434187a0,mcdonald's,14.650650440767906,121.10454825718367
887,4c7118a7fa49a1cd4ae5a7e3,mcdonald's,14.650487378101364,121.1157183579691
888,50b38e1ce4b04c369f0f9142,mcdonald's,14.633831283627387,121.10854631481372
889,51306f8ae4b02c4451d260c6,mcdonald's desserts,14.650722257155289,121.11230794750396
890,55ea99bc498e0dbf628e8e53,mcdonald's,14.635564168868997,121.1285061063529
891,56417eb8498e6e0de2d5914e,mcdonald's roosevelt,14.633802,121.108565
892,4f30d99be4b0d510f3d5bbe7,angels burger,14.646198595430452,121.11349420839882
893,5015efbbe4b0befd13fa80f3,burger machine,14.63214746236177,121.12257034255657
894,5b25224b81a0ea00395bd2e1,varda burger,14.648312,121.11586
895,5325452b11d2e9f6a0605a16,barney's burger,14.643980490648262,121.12120555795778
896,570c26ab498e8795f4f53694,botd burger of the day,14.64935895825519,121.11767400561031
897,52ff8fbd498e01f8849ef84b,angel's burger,14.651008853630001,121.1112223965657
898,58cfdef5d243326170f83bd1,burger avenue,14.650312,121.113697
899,5737bc9b38faf9c0ec4086b3,burger machine,14.651748,121.12467
900,5083aaf2e4b0ee1f0f9b4539,burger machine,14.651172,121.11237
901,4ef53fdbf9ab42ef30233061,burger machine,14.644925326857441,121.11202816727656
902,5b0980a97269fe0039880e19,minute burger,14.660187,121.1125
903,5239e9f311d20c7277cb47b5,angel's burger meralco,14.650952,121.111124
904,507303e4e4b0d53d224e3362,burger machine,14.65129807705536,121.11114405745712
905,5677d44c498e19cea13c2e42,tux burger,14.642926,121.122027
906,52f61fa611d280792a8d2033,angels burger,14.652949,121.123053
907,543931b4498e918b44cbc947,burger brewster,14.642148269314369,121.12178651486151
908,54158ea6498ef4057b02597c,peter's wingers and burger shack,14.64192393431333,121.12201032082876
909,58b59321a19e90497b549f55,bruce burger house,14.638978,121.126752
910,576d0fdccd104243c0486042,burger and kebab brothers,14.642005,121.110642
911,50bb8b9de4b09a8563883960,"burger machine, east drive",14.657308280377888,121.11952605109832
912,4ef53f5b722e31c648805065,burger machine,14.642790406186966,121.10927509494326
913,576bd58d498e89559f36a2b8,burger kebab,14.639092,121.121877
914,576f9e81498ed2dc39c4b4ad,burger and kebab brothers,14.639027,121.121757
915,57fcffd5498ee5d9e4239868,burger machine,14.658885,121.111196
916,531b15d2498e1a890c75408b,kalbo burger,14.65095,121.1047
917,54551fb3498e70afc4ec3e01,angels burger panorama street,14.639290872832662,121.12712976785451
918,4eeb7677f7903296f85467ff,angel's burger parang,14.660956338422713,121.11330395980215
919,4ed831f79a5286d91cb0ab2d,angel's burger,14.65082136849897,121.10376876026655
920,56d44ef0498e5cc67da65f15,chevy burger mayamot,14.633207484665284,121.11099857040507
921,56fe87d1498e6354abec77ec,chevy burger,14.633086,121.110837
922,5b49effbf1936e002cde5b3d,pizza hut,14.648563,121.11531
923,59e1e5879e3b654e9ca4b090,grab pizza,14.647465,121.120817
924,4deb2cae7d8b6c7a53537e51,diego's pizza,14.646868764801425,121.11311930646299
925,532af09f498ecd9f38630e7d,tatjana's burgers pasta pizza,14.651823997497559,121.11386108398438
926,4eb4ff93dab4fe511173722f,calda pizza,14.651005716768568,121.11100480802293
927,58359e89d32b4427a5f86f61,bigaw's brick oven pizza,14.642768,121.121715
928,5378b4da498e67bd50c21a8e,dexter's pizza -- parang,14.652953,121.123114
929,534fdc2c498e4803566271c8,pizza hut bayan bayanan,14.653219223022461,121.12303161621094
930,532d0e3d498e1e200b1b99da,"diego""s pizza ordonez st.",14.645081520080566,121.11036682128906
931,56fd2bfe498eff7a8394d80e,big guys pizza,14.64219,121.12214
932,50f131d1e4b0dfb0bf058b31,greenjoy pizza,14.641058366117228,121.1138691091596
933,5bb9f636d0a149002c2253ee,yellow cab pizza co.,14.660474,121.118615
934,4da97fcb1e72c1ab9bdc4155,pizza hut concepcion,14.650740375938426,121.10528933565053
935,55446368498e89d89ddfd7dd,papa john's pizza,14.650794538241856,121.10744206135149
936,51e7c7a8498e69847b382157,pizza haus,14.638425043109793,121.11999605203482
937,50435089e4b05698bab4d1e8,"pizza smile, parang",14.657773757392862,121.11353897273055
938,4dd39ca4d4c05dc63ac65f7b,pizza palace,14.641401,121.109015
939,538b33d7498ea2dd8e371508,dexter's pizza,14.658588394604514,121.11351659056677
940,4de319931f6e3190cd20c445,greenwich pizza meralco,14.6408184,121.1266894
941,4f543c91e4b09f74b99d71da,pizza hut,14.65081055015698,121.10531324555235
942,5a2a67b6aa6c950ef4a7f44d,s&r ayala mall arvo,14.648133734447079,121.11626471296455
943,5340fb4b498e85909a584114,lot's a pizza,14.657054329676868,121.12630171916504
944,55f013d1498eeb95b1591187,chef joebert pizza bar,14.636454630527032,121.10826226174395
945,5950bf93e55d8b3c0be4ed76,czyrah's pizza,14.66354,121.125824
946,58a6d4bce7f1cf6d6791818e,bigaw's brick oven pizza.pasta.more,14.65203,121.114105
947,505dc112e4b0bcb213c45883,biano's pizzaderia,14.6419149633604,121.11106571829724
948,5017bdc6e4b07a8d50bb4315,pizza's smile,14.658215602120244,121.10829024067672
949,4ee729d5e30005f8ba5b155b,bacolod chicken parilla,14.6493120733433,121.11714670959907
950,5a1fb63932b61d22b349c620,bonchon chicken,14.648701,121.115396
951,4d5b51c4dc5f224ba946af64,parilla's chicken inasal,14.649243867245419,121.11718066777428
952,59f41fa295a7222469401cc4,chicken deli - a bacolod original chicken inasal since 1983,14.65354,121.11842
953,56dbeddc498e8755e1d1e213,bonchon chicken,14.655719,121.118032
954,51e7c7ee498e56c37688f2f2,singsarap garlic chicken,14.650524,121.112599
955,57a21385498e22dfd7e18891,chubby chicken,14.643427,121.121739
956,53fae2a5498e9dac1e5a11eb,crazy chicken,14.641285927062096,121.12199863863661
957,56aca6dd498e65c91f35e91f,tapout honey chicken and burgers,14.640226684173658,121.11001373032387
958,4f7d80e9e4b02ba242c00eb1,crazy chicken,14.64027360070358,121.1099353904239
959,523acfbe11d2cf1089b4f691,kanto fried chicken,14.63809871673584,121.12702178955078
960,57139336cd1050ab69e048f0,jordan's chicken java + steakburgers,14.652166485304885,121.10307485459369
961,59620519bed483018d97cab7,wagga wagga jerk chicken,14.641295,121.103823
962,51dc956e498e534ff838cc6e,johnny's fried chicken,14.647121384893184,121.1014575910876
963,5a81a35f3b4e005bdc98b270,bok um box korean fast food,14.619621,121.05464
964,5062efc7e4b0d29ce81c7ab0,fas fast food,14.6315725,121.0487512
965,544c1e04498ea3736c1fb4a5,j.boy japanese fast food shop,14.621301934595635,121.05257124845673
966,53cce8aa498ec6ddfb30e565,jboy japanese fast food shop,14.61987220454844,121.05244248555242
967,4bebc09418389521fdfc0acf,gateway food express,14.622210116764888,121.05265807425715
968,502de593e4b0c5661c2195e7,robinsons food court,14.615071859122647,121.03772943659712
969,50ed189be4b0915f87c409fe,taco bell gateway - food express,14.622244846030233,121.05300713505319
970,5662e19338fa50a78669da1b,food exchange manila,14.620124686387383,121.0544932372894
971,4dcf5c311f6eb12270936106,food gallery,14.619606688769013,121.05681771735686
972,4e660f6bb0fb188e8f36a44c,kkk food revolution,14.619963066386383,121.0553455352783
973,4cd392e2d160b1f7c9c324ab,keni po food haus,14.623035954130957,121.05650424957275
974,5a1540dd0ff4f955cbdd49e3,devour food hub,14.623965492069274,121.03210181713281
975,585124b37d66be2741170d5c,lovecraft food park,14.623592036709809,121.04408167142084
976,52e0e9ca11d2363628266daf,glaze food house,14.624429639889398,121.04263991117477
977,5928e161c21cb17f3482a876,open kitchen food park,14.615273172789971,121.045897789628
978,4cbbad764352a1cd23589af5,new city foodhouse,14.63482255897878,121.05434939794154
979,4b71144cf964a52029392de3,starbucks reserve,14.630510366424211,121.03451013565063
980,532d3103498e4d7cb686d773,"adam's food, st. peter hilltop",14.615491695263884,121.0433421451396
981,5a4715b3acc5f57ca988a9a6,kamuning food trip,14.628209,121.03796
982,52c0c35111d2e3a2cee6fb68,good food gourmet,14.624229746136432,121.03449830875205
983,4fc2ff27e4b058bc48c06533,rosales' food place,14.628198,121.037109
984,527a1744498ec716b9219da3,good food,14.624147709159695,121.0343583280742
985,5010cdb5e4b0e259d1b0cb23,1305 food house,14.624207,121.034204
986,53abc732498eebdfcb5cece4,the food people inc.,14.624556432783304,121.03299770742235
987,52ae95d9498ec95207c0e90a,ferdy'z food hall,14.625698,121.047155
988,50f3db6fe4b0462a6a1d04c7,sebastian food & catering services,14.623922027945195,121.04782932370715
989,4df161c0e4cda09e6d9a30be,detroit food corner,14.6247,121.047765
990,4fb35140e4b06c85318885ff,street food sa 3rd st.,14.61456771084328,121.03412875941085
991,511f3e0ce4b0e474c08aaa0e,eagle's eye food corner,14.616892,121.043905
992,56975de0498e109371254845,treff food german sausages,14.6167555,121.044014
993,53eb7365498e318087aaf8d6,wai ying fastfood vito cruz,14.618818,121.047384
994,4e39a87bd4c046ee86bca9d4,jass fastfood,14.635227,121.033333
995,4e4a68b12271ac3f6bd3c7f7,great american fastfood,14.620994,121.055586
996,56768b97498ed3ede4e77862,otchan fastfood,14.636043965610032,121.05253205976129
1001,51d6b54d498ee198e2285362,mcdonald's,14.639829506745142,121.04087497824595
1002,4f23526ce4b006e5c103b466,mcdonald's,14.610327765018775,121.03674748163161
1003,4b9eeabcf964a520540a37e3,mcdonald's,14.622079762099373,121.02648939005938
1004,4cb0b5f875ebb60cf60fc7ad,mcdonald's,14.635564333380659,121.03115450769945
1005,4d27fde0915fa093e9f4f809,mcdonald's,14.622333872165122,121.05189063866709
1006,560bf68c498e8c934096de05,mcdonald's,14.62184513818159,121.05365696888099
1007,56c305abcd10f060c854e9b6,mcdo jc plaza,14.627351,121.039254
1008,4cbac3f390c9a143b2cb90d6,mcdonald's,14.622439453058485,121.05238874097533
1009,564b509c498e443bae8069e8,mcdo,14.616119,121.044118
1010,4d8bd28b342b370496db885c,mcdonald's,14.619686922298314,121.05671144637662
1011,4e4195b3d4c0894b210f3b3e,mcdonald's,14.620243365361283,121.05311393737793
1012,4c009720360a9c741500d9a0,mcdonald's,14.6285283806152,121.03393514992617
1013,4eea66f9aa1f7c7811254401,mcdonald's,14.639022233793495,121.03576813090925
1014,508ba008e4b0e1fc2ac01d84,mcdonald's,14.619703536061921,121.05106114538175
1015,512ea53ae4b03254b34d14ca,mcdonald's,14.623784152120441,121.04890425099676
1016,4d562c2bfb65236a909f02b4,mcdonald's,14.618953873622697,121.05503483838359
1017,4c6d8d24d5c3a1cd38d0c52b,mcdonald's,14.621879737279968,121.05341660149527
1018,581e0787e9e6fe4520cc1701,mcdonald's,14.634543,121.037737
1019,56091532498e1ae1fee93c09,mcdonald's,14.623288,121.056919
1020,567bac80498edd564fdbfb76,mcdonald's,14.618278,121.051692
1021,55fb3dc9498e141bd21eeb01,mcdonald's,14.622495,121.02644
1022,56bd55dc498e9cdaf0e84e13,mcdonald's,14.621889,121.053601
1023,4cf4df3ae94254817bf77cc5,army navy burger + burrito,14.635412826574466,121.03552375463926
1024,5621f433498e58775da0f645,burger king,14.622436432955368,121.05470582842827
1025,4c4c7d926e209521e1374eec,burger king,14.63628328754948,121.02961195375117
1026,4cda2a2e5aeda1cd947eb511,burger king,14.621452661021447,121.02310517092951
1027,51c442ff498e2ccdf841c247,army navy burger + burrito,14.620142175690964,121.05449445359669
1028,4f7f2b0be4b0d9edeae49c63,burger machine,14.630579461674841,121.03484546013206
1029,4fbba9b9e4b0402627506220,angels burger,14.617019099403272,121.04402221240818
1030,4d08b0811657a35df1e42de7,burger king,14.622221078499928,121.05291539427894
1031,51c13acb498ecb94e9839a73,brothers burger,14.636323622242555,121.03541135787962
1032,54d95d13498eae0b2fe204a4,barangay burger cubao,14.618024191323324,121.04911139734064
1033,4c72a177376da09342dca6c6,burger machine,14.613934626175993,121.03457566094764
1034,4fb0cf84e4b09cca62557870,angel's burger,14.633079084865843,121.05444669253761
1035,4ca84801b7106dcbf91871a5,brothers burger,14.61967137501008,121.05589460697105
1036,4bd1fa12a8b3a59385d8665f,burger machine,14.635562567855782,121.02647995374026
1037,503775ffe4b03e0136cbdbae,big better burgers,14.615037089152008,121.03771000254714
1038,56a02a51498eb1368db57012,burger king,14.633171669691638,121.05429455490906
1039,500b0176e4b03c6eb35a023f,burger machine,14.625200524007145,121.03738187457043
1040,4fa7d342e4b0e7038cfe3f8b,"angel's burger, l sianghio-kamrd (nyc)",14.625293012206079,121.03733708184222
1041,4f8eefe6e4b0fe4dc183eb77,angels burger judge jimenez,14.626602489235998,121.04204022744149
1042,4ee09a366da1d9fae33c9983,burger machine ,14.625818105944798,121.03694514476054
1043,53045f7311d250dead39f8af,caliburger,14.633104138260892,121.04315163563564
1044,539b2502498eab4891ee50b0,burger machine,14.62608,121.03701
1045,4e8944064901fcfbc9013fd9,burger machine e.rodriguez,14.623527361265282,121.04415658309037
1046,4fa66e48e4b02e6a5617abe3,burger machine,14.623546921881797,121.04422936714734
1047,4cfa9d362d80a143f5f645d8,burger machine,14.631399718380747,121.04116418714594
1048,503c607be4b00cfc74c0189e,angel's burger,14.626780274529189,121.03633484019717
1049,547f0ed1498e8b8ae8d5baaa,hab it burger,14.629152,121.040067
1050,4d8f03576174a093e547d5e3,angel's burger,14.627345361807603,121.03458229708076
1051,5125568ee4b053fc2bd75a64,burger matsing,14.627228,121.033984
1052,51cbc533498efa7b724f6857,burger matsing kamuning,14.627583648596296,121.03382080076167
1053,4d3d06d3d625224b867496fa,s&r new york style pizza,14.62121320837872,121.0516103219546
1054,4bafa4f5f964a52033133ce3,yellow cab pizza co.,14.6345106177047,121.03524036829444
1055,4be25d45d27a20a1fd8e8f5b,brooklyn pizza,14.632439293439964,121.03479525675209
1056,55b8942c498ee820f103b045,pizza hut,14.62250209061611,121.05365442238129
1057,4f49f747e4b07165fabf0de2,red buffalo wings & pizza,14.610598348401664,121.036910989195
1058,4bf8c3f25317a5939f6d007f,pizza hut bistro,14.621284335838357,121.05307670147876
1059,5234084a498eaa43117f3725,yellow cab pizza co.,14.61837678638876,121.05634937125222
1060,4c1df818b4e62d7f448add93,pizza hut,14.62002745318276,121.05503251965571
1061,4ca47a985720b1f7a6303aef,pizza hut,14.619810827581798,121.05118346321136
1062,50f74140e4b0af7303f7bb34,santino's supreme italian pizza,14.613239985290425,121.0331880832518
1063,530e1a66498e89572eab7b19,pizza hut,14.621359484960125,121.05382870571594
1064,5131ae45e4b008f261109b33,pizza pedricos,14.621117427835495,121.05398203299576
1065,503a01f4e4b0105c0ec24dcb,big guys pizza,14.622194533022087,121.0256723900825
1066,5100f555e4b073cacde15850,fiesta pizza - jc plaza nyc,14.626097,121.037086
1067,57413e9a498ebf9fa07f9654,shakey's pizza,14.621230750879848,121.05223576271518
1068,4f3a777fe4b0a4d443b3daf7,lots a pizza jp rizal,14.628378373053923,121.04095963998684
1069,507a5acbe4b0eb8b8429333d,lots a pizza kamuning,14.627645492553711,121.03697204589844
1070,589739701e1de501d9a9cd5d,domino's pizza,14.623584,121.031573
1071,4cc1851e22ce46883fe33d47,pizza hut bistro,14.625176509002914,121.04564024941077
1072,5b602833da2e00002be0cc2c,3m pizza commissary,14.61675,121.040133
1073,56530172498eea8803ebeffd,domino's pizza hemady,14.623952905874395,121.03164837176838
1074,4f754ad1e4b06c81e095a35c,3m pizza commy,14.616540855785384,121.04428535485354
1075,52adadb6498e9cc9c10a8b7d,pizza hut express,14.622179171440129,121.05291834777367
1076,5360d0ea498e79453cb5baa3,lombardi pizza and pasta,14.614175,121.038428
1077,58aabaab8d8e997abd20a013,czyrah's pizza,14.61904,121.04906
1078,4f5de042e4b04fe110004f70,mang oni pizza,14.633715958003977,121.04036615260014
1079,552bb2b3498effc3909ede51,brooklyn's new york pizza,14.632414,121.034807
1080,5b80024d947c05002e510fb1,fracasso pizza crame,14.609249,121.04885
1081,55cd13ae498e3e51f3f7f601,pizza hut new frontier,14.622342525384862,121.05095330456557
1082,5304a9f0498e6bba75f08bdb,lots'a pizza,14.619318,121.05047
1083,5038b2ffe4b092ff1288425a,bonchon chicken,14.61493894791226,121.03763127206035
1084,504f2348e4b09745bf88fb25,bacolod chicken inasal,14.615059669756127,121.03771354649926
1085,51fcf073498e6da09bc6688e,bonchon chicken,14.619941295659814,121.05098075505074
1086,57bd9941498e1913da6d3a51,peri-peri charcoal chicken & sauce bar,14.621332107668263,121.0531245266855
1087,503b51a6e4b01850ca7692ec,bonchon chicken,14.621165592672861,121.05388568976655
1088,4e9e6c595c5c9252b6281b35,bonchon chicken,14.635945999193032,121.03551979259382
1089,509a3028e4b07f27239da5ca,dumaguete chicken inato/thai manila,14.629353471680218,121.03419595028437
1090,59a7bfa9364d971fe6e2f55a,bonchon chicken,14.621855,121.053088
1091,4d16de776d103704f00e33bd,world chicken,14.622579764201818,121.05280379647897
1092,4f7c2a78e4b0d1da88a6c2dd,tornado peri-peri chicken,14.636618236121732,121.03976600685696
1093,4e5a3f007d8b966a15d373b6,inasal chicken bacolod (icb),14.620866250691506,121.05433166027069
1094,4eae8825490170218cbadd31,savory chicken,14.636325477082245,121.0283290505591
1095,4d0a196ed4018cfafcd84528,bacolod chicken parilla,14.633477303980685,121.02618099529015
1096,58a86048ebf028557b49afc7,korean chicken,14.63074228125198,121.03453874565469
1097,596c6f387269fe1bb3220979,puradak chicken,14.63372,121.0412
1098,544341b0498ed784c34a234f,tornado peri-peri chicken,14.624292,121.042558
1099,4f81fd94e4b02b956a60d69a,chicken tsunami,14.620905875073513,121.04243214795834
1100,52621393498e769d26c0e973,ma's chicken,14.6274427959782,121.04048373052207
1101,54e1bf21498ef817101a6329,jordan's chicken java + steakburgers,14.628172521352045,121.03877230722253
1102,50b1d8e5e4b078aafc6487d0,fiery chicken,14.629528162629793,121.04633448699892
1103,4fc0aef7e4b0a3bda0791ee3,rsb fried chicken & sizzling etc.,14.627099990844727,121.0340576171875
1104,4bc54c02ccbcef3b816de6d2,chicken inato,14.629333318763454,121.03409528308401
1105,504117b6e4b0805b9ed450d4,sing hainanese chicken house,14.6154306089069,121.03905039184195
1106,53e846fa498e9b45f8d7634e,chicken town,14.631792068481445,121.03707885742188
1107,4c98cb0807916dcbfd13ef1b,chicken street,14.630838,121.034779
1108,570b8892498eb7eb76e643e5,chicken shack,14.614852054130564,121.037589040722
1109,556ad857498e866545fbc8e7,broaster chicken,14.614676847121139,121.03797537664842
1110,502893d5e4b05db3af76fc48,broaster chicken,14.614465576877135,121.03820105476096
1111,57a340d8498e3f2852cd70be,world chicken cafe,14.632938,121.03656
1112,5027ae5de4b0727084693335,chicken bacolod inasal,14.61416948102075,121.03673237838274
1113,4fc02770e4b0d65549f0f670,jojo's fast food,14.606675168766028,120.98367466551632
1114,533fbecb498e67a036264a0b,golden dragon fast food,14.605700440604421,120.97491908433197
1115,4fdd61e9e4b0b192333ad916,yiang kuang fast food,14.607293144591534,120.9780561534192
1116,5139041ae4b0cbfaa1e61b4b,chinese star fast food,14.601770745905602,120.97672851086277
1117,522add7111d22b5c165b7dda,88fastfood,14.601984977722168,120.97745513916016
1118,5114821de4b013e49540c06e,wai ying fastfood (嶸嶸小食館),14.60718019490645,120.97843090582285
1119,4cf03951e3b9a093bf423753,wai ying fastfood (嶸嶸小食館),14.601991882160616,120.97598495744424
1120,4cb6c3b0f6616dcb8070e108,sm city san lazaro food court,14.617803604177684,120.98542688478098
1121,4c413511d691c9b6a6878c0a,estero binondo,14.60164653638116,120.97680911590618
1122,53fea1b0498eb9d91bab1cd3,mr. fast foo,14.6105488602179,120.9905027959093
1123,4e0da92cb61c3fe477fb149d,mang tootz food house,14.609259876448187,120.98698462571814
1124,53c9fc42498ee4f4fb36174c,quan yin chay vegetarian food garden,14.601184026598645,120.97619363027138
1125,4e066e11ae60a90eabc3122e,johnken foodhaus,14.613594435469299,120.99248002517899
1126,581f0af4abffa14f7361471a,the food truck manila,14.608701520984756,120.98741646138468
1127,4e4ca3a6ae60bb501267e612,feu food court,14.60433224455073,120.98771500309927
1128,57285660498e26404ac7706c,the one food hub,14.608164494571577,120.99126515579118
1129,56b42155498ed705db3befab,fast 5,14.605727,120.98643
1130,4e4dd63962e14b77e3867b39,da binchi food house,14.610503958828994,120.99150541761632
1131,4ffc02c3c84c920cc0840274,scott's food express,14.61037039703894,120.99065065383911
1132,561c6a20498e8f4581b6b7da,ust athletes food,14.609695,120.991336
1133,4fab985f0cd619c365bdf3ab,ust multi-deck parking and food court,14.61037039703894,120.99056482315063
1134,547d6fb5498e4ed328f86729,red table korean fast casual restaurant sm san lazaro,14.617415543198183,120.98624576221555
1135,53fecfef498e88648570bafa,good food,14.611903,120.992369
1136,535a010a11d277410a461fdf,good food flotentino st.,14.61209774017334,120.99267578125
1137,5575c453498ed11afc8638d6,alas jas food hauz,14.614322326606356,120.98357943866576
1138,52f5243011d2b32d430d40bf,playpen food haus,14.612542,120.990867
1139,52d20ecc498eabcb64b47cf3,playpen food haus,14.612794180642013,120.99091728857053
1140,55ee2e54498e98f06e619236,elokito best food,14.605001247895599,120.98904305827841
1141,56dacb6a498e330034e689d0,john ken food haus,14.604918227025204,120.98903013364209
1142,5892a8732f91cb25592a3cb5,jdb's comfort food,14.61291,120.990716
1145,5600d60e498ef74c2c88de07,mr. fastfood,14.60921,120.990612
1146,50ee82cbe4b0710a5a41d309,shishi fastfood,14.605103,120.97617
1147,50289715e4b0aa167602737c,phat panda fastfood,14.619277104424262,120.99774501090351
1148,54643ec0498e3f9ff713f3df,estero fastfood,14.60151951041287,120.97669816722316
1149,52ec813f498ea8cceab684df,"lga fastfood, ongpin binondo",14.601334571838379,120.97698211669922
1150,4f1d890cc2ee54528c468f06,lga fastfood,14.601391585618302,120.9768661902571
1157,4ba9d203f964a5205b393ae3,mcdonald's,14.612985659953292,120.98983863894082
1158,4d1c2d5c763fb1f7fcce8866,mcdonald's,14.602041279188091,120.99285486708258
1159,4c2c1518ae6820a16ded1843,mcdonald's,14.605866386876869,120.98830755955817
1160,4d5c9fa29c31b60c192db7ee,mcdonald's,14.60194233570089,120.988286224702
1161,4d30669555716a31252a3b28,mcdonald's,14.608611213179918,120.97894905825832
1162,4cdff9e3dcaea090684f9444,mcdonald's,14.598254357647125,120.99323249629633
1163,500ff588e4b087cdfacd7d7d,mcdonald's,14.602543413122355,120.98722486351139
1164,4e0d3aed091acd6746d8dab1,mcdonald's,14.601187772828714,120.9827697929303
1165,4d7d98bc534fba7a5914d9b1,mcdonald's,14.618156405084136,120.98523320976035
1166,4d2ecd48940137049201e9da,mcdonald's,14.606848153707334,120.97336602271466
1167,53754f12498e626e7ac8fd56,mcdonald's,14.59783113755126,120.98451556052035
1168,52c45d7411d224c790362174,mcdonald's,14.618050167365592,121.00147533430052
1169,5819362f4621aa4f09f12c09,smdc sun tower mcdo,14.617938,121.001439
1170,52c10a70498e74795f3e6e59,mcdonald's,14.608516540738767,120.98773987382502
1171,4bafe38bf964a5202b293ce3,mcdonald's,14.610629560404817,120.99063262504633
1172,57bcbebe498e69e73297fcc8,mcdonald's sun residences,14.618014665942004,121.00149554276341
1173,51ecefdd498ebba7a8c9363b,mcdonald's,14.612742504391505,120.97652212074162
1174,57f8798f498e32fba449b215,mcdonald's @ winford hotel,14.617720057727311,120.98705544349589
1175,543e741f498e6e2ec8f3bfa3,mcdonald's,14.616878103583343,120.9829645119099
1176,58858fd4727ba3235c49a29e,mcdonald's,14.621760468167786,120.99969037720723
1177,56e98558cd1017cb555267c4,mcdonald's,14.6058,120.988198
1178,56a20060498eb30e1488af35,mcdonald's,14.603644752795942,120.98225185655012
1179,58848e937b88a73bb3c6f34f,mcdonald's,14.623004,120.982571
1180,5798c1de498ee504e575dd53,mcdonald's,14.600469447661107,120.99086530201022
1181,57f49f07498e8fe4cfe5b683,mcdonald's,14.607932,120.987297
1182,5b79ebd3419a9e002c05c315,mcdonald's,14.6174965,120.98728
1183,58e1b0caca10702209223921,mcdonald's mayon,14.620273,120.994791
1184,5ad17ade53159342e4809be9,mcdonald's recto-rizal ave.,14.603494,120.981736
1185,4c69ec878d22c9283fa8b845,mcdonald's,14.59961233761305,120.97996894612861
1186,4f5b3cd2e4b02628c0d8c21d,mcdong kitchenette,14.603999088259332,120.9891528843076
1187,4b9cd4eef964a520cb7d36e3,burger king,14.618665381285743,121.00220561027527
1188,5409d5db498e065a5ff3f7a0,8th street burger bistro,14.614976545182241,121.00134075258306
1189,4f04aad7e4b02f20c8387289,burger machine,14.606259124853754,121.0019052028656
1190,510b87c6e4b0c9edcad67892,army navy burger + burrito,14.611489681302654,120.9879705621454
1191,4dd76f9e2271c5d36d3b7755,"burger machine, q. ave",14.618641,121.00221
1192,5641d4df498e38f07e81f497,cristopiy burger pasta nachos,14.61444683010603,120.99360840013357
1193,54608fd5498e7ea2229330fb,jacko's burger bar,14.612506687575062,120.99127213100898
1194,578c48efcd10e8a10c3d8b09,zark's burgers - morayta,14.60458976322286,120.98764766575654
1195,5858ffbea6118c22ff3e887c,jacko's burger bar,14.609792644845543,120.98646236159354
1196,589ea0710593e169a5e2dd4e,hickory burger,14.608069,120.99136
1197,4fb1fc251081cf3ad7633e2e,ronnie's burger,14.610463834149515,120.99054336547852
1198,50c224f3e4b09fd0a7e2f737,angel's burger,14.60969549559169,120.9939475229263
1199,58c37e4026a40712f7adaf18,the hidden geek bistro burger and shakes,14.612815,120.98946
1200,4d4ec3c88af6721eb8a21388,burger machine piymargal,14.613742,120.991252
1201,54edb45d498e087eec1ee6df,burger mayhem,14.61257,120.988804
1202,5448cf9e498e6a3b010b45e7,jack's burger,14.613735583892378,120.99067083364552
1203,4ee5f6eed3e34ebcf13c1489,pjmc food corner (galaxy burger),14.612592019495537,120.98865300885706
1204,55faf584498e407bc07ae8a0,kiko burger station,14.614820126747617,121.00024941611832
1205,4f655b00e4b04b244483edf0,burger machine,14.607489320303703,120.99316896717478
1206,54fd8159498edf0d9c0c7a40,callows burger,14.613888989142703,120.99054760599506
1207,54c49c1c498e8262bca4bd74,jack's burger,14.614057645176326,120.9907649366899
1208,54f0645c498e27464ccd9617,the burger boulevard,14.612308047757692,120.9880931375334
1209,55e2fc67498e0c906c89ee73,the black burger,14.608482691755256,120.98790938396853
1210,54c72526498ed4cc077836ce,critu's burger,14.612322186208415,120.9876251220703
1211,56dd53dc498edb8556b98bb0,burgees: burger & grub,14.607311,120.994136
1212,50469cb1e4b04db6008df527,happy cow burger and ice cream,14.607536209049888,120.9882286622998
1213,4e8ed911d22d11e244c7789e,crave burger,14.610467,120.986835
1214,57ee2a63498eef0ba77bd6b6,run and feast burger place,14.613338,120.987828
1215,56b9eb85498e5357a071a8e6,the black burger,14.608698,120.987154
1216,53961679498e5e3ad1be524c,"minute burger loyola street sampaloc, manila",14.611076953401763,120.99607032217953
1217,4bab8e6bf964a52052b33ae3,yellow cab pizza co.,14.612203782010038,120.99032105347474
1218,4c5aa73f5c57c9b675af1d4a,pizza hut,14.612561831294592,120.99425044883249
1219,4db7ba91f7b15ca52cdb8e99,yellow cab pizza co.,14.602187999140508,120.98728758898164
1220,5077a434e4b07204bffa615f,the sicilian pizza,14.612698951844973,120.98944975412381
1221,4c8686cdee6fef3bad73435c,yellow cab pizza co.,14.617569904387851,120.986009574484
1222,4df8b190a809df9984ea56c9,calda pizza,14.606076804315876,120.99000392249334
1223,4d2a8216c406721edc9f84b6,pizza hut,14.602313429448502,120.9869060802613
1224,4ce74e799f776ea8f35a5722,pizza hut,14.617805699061089,120.98547297208052
1225,5943a8ba42d8c2427044ac22,yellow cab pizza co.,14.609466929848876,120.99300318754686
1226,5081141ce4b0f51bc54eb011,lots'a pizza,14.617853931536036,120.98553437490216
1227,5146eac7e4b0e4ce35c87721,angel's pizza,14.601674638053433,120.98815024313843
1228,4da7b41df7b12d2d99fbbb41,"angel's pizza, pasta, combo",14.601237311995991,120.98923601970861
1229,548bdeab498e2d4a133a7b17,domino's pizza,14.6080522618516,120.99098328865719
1230,4e3920266284250071b9eea9,pizza hut,14.600789681033557,121.00004300248403
1231,518e117d498e2f71e4659b51,pizza hut,14.59853089917119,120.97924933876659
1232,4e29ce628130be26b1afbf6e,claire's pizza parlor,14.613173493076745,120.9748363494873
1233,50b19193e4b0216227a01f44,lots'a pizza (168 mall),14.60979913387816,120.97447092498652
1234,552f7323498e63ef339c2964,big guys pizza,14.6098323851003,120.99248002517899
1235,54a9166d498e5bb40ac361cf,domino's pizza,14.61846725088095,121.00030851010024
1236,4ed209b6e5faa5ec04c75a22,patrick's pizza,14.613308601956758,120.99047478959723
1237,511a353ce4b03bddc22d0008,3m pizza,14.613177297183382,120.99660241642466
1238,4f9ff059e4b03a805761ea65,dexter's pizza,14.606897358124092,120.99193671043574
1239,52818722498e7f9707d4e777,pizza pasta,14.612364375117847,120.98808302667405
1240,502e1dede4b0b49bb4a91538,tres pizza and pasta house,14.612835,120.988204
1241,5289e52011d233925881d554,super mom's pizza,14.612689061168966,120.98773013962447
1242,4f281575e4b0279eab049b54,lots'a pizza,14.608112360596182,120.99599750910102
1243,53553e74498e5afc2e81808e,patricks pizza carola street dapitan,14.614652104289181,120.98844151405343
1244,57037f4b498ef3fe2515e8f6,chansel pizza haus,14.605328,120.99311
1245,4ec4131f775b92bf9d28ee34,el buono pizza morayta,14.606282,120.987469
1246,566a363d498e68988e774743,angel's pizza,14.599164556129127,120.9900241503792
1247,502a519ee4b0f39571fad7e4,bonchon chicken,14.610294190181527,120.9900763533799
1248,524947c811d2352cf0c94f0e,bonchon chicken,14.607409225371198,120.99026889235404
1249,541112f0498e34943603de82,chicken deli,14.609643049956007,120.9917059629065
1250,4f9b7afae4b0ad3855263fc4,bonchon chicken,14.601193942585228,120.98279134218974
1251,5203a366498e6d8d5955731f,bonchon chicken,14.599637654150527,120.99054730768509
1252,4f4378d4e4b0f752a24f6275,the chicken story,14.611821057982965,120.98765172014063
1253,4ffcf0efe4b040107106e421,jasper's house of chicken,14.612598274493386,120.98800460741846
1254,50d2e04ae4b04a7372a58fc2,bonchon chicken,14.617561416791805,120.98596996888548
1255,4d0f64d6c3dc37043d3f3274,inasal chicken bacolod (icb),14.61804235568265,120.98524469741812
1256,4bdaccce2a3a0f47e705acb6,bacolod chicken inasal,14.61803312461228,120.98525721102027
1257,4eb36373e5e8743704dad42c,chicken tsunami,14.602734374486056,120.99043607711792
1258,4d6262b2e4fe5481ccc5959e,country chicken house,14.608803746366142,120.97906982697386
1259,4cf0bad9cc61a35d2fba109e,ramon lee chicken house and panciteria,14.600427189040378,120.98090132460511
1260,4dc144dc22713750ba785090,chicken company,14.61783927182986,120.98556238235561
1261,516956d3498eb44b7f25bc80,chicken charlie,14.618266858529564,120.98520359919773
1262,523ad9ed11d2dc3aa065b0fa,inasal chicken bacolod (icb),14.601067706433277,121.00013658307311
1263,5b336f913260db001ce4793f,24 chicken,14.609653,120.98652
1264,59e9a2e060255e3d6c8f2336,bonchon chicken,14.60470572342957,120.98785825278705
1265,530728d3498e988c67a0f2a2,chicken corner,14.605634261067545,120.98919769489248
